[
  {
    "ident": "AR-0136",
    "type": "balloonport",
    "name": "El Manantial Airport",
    "elev": 49,
    "lon": -58.3594,
    "lat": -35.1943,
    "isoregion": "AR-B",
    "country": "Argentina"
  },
  {
    "ident": "BE-0012",
    "type": "balloonport",
    "name": "Céroux-Mousty Balloon Field",
    "elev": null,
    "lon": 4.513276,
    "lat": 50.660241,
    "isoregion": "BE-WBR",
    "country": "Belgium"
  },
  {
    "ident": "DE-0448",
    "type": "balloonport",
    "name": "Freiballon-Startplatz Köln-Sülz",
    "elev": null,
    "lon": 6.89627,
    "lat": 50.91305,
    "isoregion": "DE-NW",
    "country": "Germany"
  },
  {
    "ident": "DE-0351",
    "type": "balloonport",
    "name": "Balloonport Bitterfeld",
    "elev": null,
    "lon": 12.29391,
    "lat": 51.62455,
    "isoregion": "DE-ST",
    "country": "Germany"
  },
  {
    "ident": "FR-0354",
    "type": "balloonport",
    "name": "Cérizols Balloonport",
    "elev": 1312,
    "lon": 1.069444,
    "lat": 43.128889,
    "isoregion": "FR-OCC",
    "country": "France"
  },
  {
    "ident": "GB-0609",
    "type": "balloonport",
    "name": "Black Horse Ballooning Club",
    "elev": null,
    "lon": -0.712451,
    "lat": 51.710142,
    "isoregion": "GB-ENG",
    "country": "United Kingdom of Great Britain and Northern Ireland"
  },
  {
    "ident": "GB-0682",
    "type": "balloonport",
    "name": "Lydiard Park",
    "elev": null,
    "lon": -1.85193,
    "lat": 51.561725,
    "isoregion": "GB-ENG",
    "country": "United Kingdom of Great Britain and Northern Ireland"
  },
  {
    "ident": "US-2456",
    "type": "balloonport",
    "name": "Fort Huachuca TARS Site",
    "elev": 4872,
    "lon": -110.29571,
    "lat": 31.48581,
    "isoregion": "US-AZ",
    "country": "Arizona"
  },
  {
    "ident": "US-2464",
    "type": "balloonport",
    "name": "Yuma TARS Site",
    "elev": 991,
    "lon": -114.24328,
    "lat": 33.01587,
    "isoregion": "US-AZ",
    "country": "Arizona"
  },
  {
    "ident": "64CL",
    "type": "balloonport",
    "name": "Goodyear Blimp Base Airport",
    "elev": 21,
    "lon": -118.276234,
    "lat": 33.855333,
    "isoregion": "US-CA",
    "country": "California"
  },
  {
    "ident": "CO28",
    "type": "balloonport",
    "name": "Suckla Farms Balloonport",
    "elev": 5050,
    "lon": -104.89199829101562,
    "lat": 40.05830001831055,
    "isoregion": "US-CO",
    "country": "Colorado"
  },
  {
    "ident": "US-0934",
    "type": "balloonport",
    "name": "Murphy's Landing Balloonport",
    "elev": 1050,
    "lon": -73.1894444,
    "lat": 41.666664,
    "isoregion": "US-CT",
    "country": "Connecticut"
  },
  {
    "ident": "US-2641",
    "type": "balloonport",
    "name": "Characters in Flight Balloonport",
    "elev": null,
    "lon": -81.51947,
    "lat": 28.37096,
    "isoregion": "US-FL",
    "country": "Florida"
  },
  {
    "ident": "US-2459",
    "type": "balloonport",
    "name": "Cudjoe Key North TARS Site",
    "elev": 4,
    "lon": -81.5061,
    "lat": 24.70094,
    "isoregion": "US-FL",
    "country": "Florida"
  },
  {
    "ident": "US-2457",
    "type": "balloonport",
    "name": "Cudjoe Key South TARS Site",
    "elev": 4,
    "lon": -81.50449,
    "lat": 24.69609,
    "isoregion": "US-FL",
    "country": "Florida"
  },
  {
    "ident": "59ID",
    "type": "balloonport",
    "name": "Palisades Field",
    "elev": 5624,
    "lon": -111.049361,
    "lat": 43.184833,
    "isoregion": "US-ID",
    "country": "Idaho"
  },
  {
    "ident": "5KS0",
    "type": "balloonport",
    "name": "Anthony Balloonport",
    "elev": 1250,
    "lon": -97.961403,
    "lat": 37.094501,
    "isoregion": "US-KS",
    "country": "Kansas"
  },
  {
    "ident": "MA26",
    "type": "balloonport",
    "name": "Balloon Port At Dingley Dell Balloonport",
    "elev": 465,
    "lon": -72.2562026977539,
    "lat": 42.120399475097656,
    "isoregion": "US-MA",
    "country": "Massachusetts"
  },
  {
    "ident": "13M",
    "type": "balloonport",
    "name": "Aeronut Park Balloonport",
    "elev": 980,
    "lon": -83.85859680175781,
    "lat": 42.60419845581055,
    "isoregion": "US-MI",
    "country": "Michigan"
  },
  {
    "ident": "28NC",
    "type": "balloonport",
    "name": "Balloonport of Greensboro Balloonport",
    "elev": 800,
    "lon": -79.81890106201172,
    "lat": 35.9557991027832,
    "isoregion": "US-NC",
    "country": "North Carolina"
  },
  {
    "ident": "2JY7",
    "type": "balloonport",
    "name": "Alba Vineyard Balloonport",
    "elev": 240,
    "lon": -75.164167,
    "lat": 40.615689,
    "isoregion": "US-NJ",
    "country": "New Jersey"
  },
  {
    "ident": "12JY",
    "type": "balloonport",
    "name": "Clinton Elks Lodge Balloonport",
    "elev": 37,
    "lon": -74.921538,
    "lat": 40.604587,
    "isoregion": "US-NJ",
    "country": "New Jersey"
  },
  {
    "ident": "35JY",
    "type": "balloonport",
    "name": "Cyber Density Balloon Spot Balloonport",
    "elev": 75,
    "lon": -74.63469696044922,
    "lat": 40.43439865112305,
    "isoregion": "US-NJ",
    "country": "New Jersey"
  },
  {
    "ident": "55NJ",
    "type": "balloonport",
    "name": "Garden State Balloonport",
    "elev": 185,
    "lon": -74.76629638671875,
    "lat": 40.633399963378906,
    "isoregion": "US-NJ",
    "country": "New Jersey"
  },
  {
    "ident": "JY42",
    "type": "balloonport",
    "name": "Mabel's Balloonport",
    "elev": 460,
    "lon": -75.0238037109375,
    "lat": 40.468299865722656,
    "isoregion": "US-NJ",
    "country": "New Jersey"
  },
  {
    "ident": "NJ34",
    "type": "balloonport",
    "name": "P & A Deptford Heliport",
    "elev": 30,
    "lon": -75.091301,
    "lat": 39.844601,
    "isoregion": "US-NJ",
    "country": "New Jersey"
  },
  {
    "ident": "US-3629",
    "type": "balloonport",
    "name": "Balloon Fiesta Park",
    "elev": 5075,
    "lon": -106.59717,
    "lat": 35.19652,
    "isoregion": "US-NM",
    "country": "New Mexico"
  },
  {
    "ident": "US-2461",
    "type": "balloonport",
    "name": "Deming TARS Site",
    "elev": 4216,
    "lon": -107.86418,
    "lat": 32.02655,
    "isoregion": "US-NM",
    "country": "New Mexico"
  },
  {
    "ident": "NY80",
    "type": "balloonport",
    "name": "Aurora Balloonport",
    "elev": 900,
    "lon": -78.569167,
    "lat": 42.696389,
    "isoregion": "US-NY",
    "country": "New York"
  },
  {
    "ident": "4OH6",
    "type": "balloonport",
    "name": "Wingfoot Lake Airship Operations Balloonport",
    "elev": 1164,
    "lon": -81.35790252685547,
    "lat": 41.009498596191406,
    "isoregion": "US-OH",
    "country": "Ohio"
  },
  {
    "ident": "RI16",
    "type": "balloonport",
    "name": "Keskinen Balloonport",
    "elev": 255,
    "lon": -71.631603,
    "lat": 41.71991,
    "isoregion": "US-RI",
    "country": "Rhode Island"
  },
  {
    "ident": "US-2455",
    "type": "balloonport",
    "name": "Eagle Pass TARS Site",
    "elev": 709,
    "lon": -100.28594,
    "lat": 28.38537,
    "isoregion": "US-TX",
    "country": "Texas"
  },
  {
    "ident": "US-2465",
    "type": "balloonport",
    "name": "Marfa TARS Site",
    "elev": 4701,
    "lon": -104.32061,
    "lat": 30.4344,
    "isoregion": "US-TX",
    "country": "Texas"
  },
  {
    "ident": "US-2460",
    "type": "balloonport",
    "name": "Rio Grande City TARS Site",
    "elev": 330,
    "lon": -98.81714,
    "lat": 26.5723,
    "isoregion": "US-TX",
    "country": "Texas"
  },
  {
    "ident": "VA60",
    "type": "balloonport",
    "name": "Flying Horse Farm Balloonport",
    "elev": 450,
    "lon": -77.777496,
    "lat": 39.051498,
    "isoregion": "US-VA",
    "country": "Virginia"
  }
]