[
  {
    "ident": "AD-0001",
    "type": "heliport",
    "name": "Terra Guindaldes Heliport",
    "elev": null,
    "lon": 1.51916,
    "lat": 42.546257,
    "isoregion": "AD-04",
    "country": "Andorra"
  },
  {
    "ident": "AD-ALV",
    "type": "heliport",
    "name": "Andorra la Vella (Our Lady of Meritxell Hospital) Heliport",
    "elev": 3450,
    "lon": 1.533651,
    "lat": 42.511228,
    "isoregion": "AD-08",
    "country": "Andorra"
  },
  {
    "ident": "AE-0039",
    "type": "heliport",
    "name": "Ajman Heliport",
    "elev": null,
    "lon": 55.440029,
    "lat": 25.400838,
    "isoregion": "AE-AJ",
    "country": "United Arab Emirates"
  },
  {
    "ident": "AE-0175",
    "type": "heliport",
    "name": "Ajman Hotel Heliport",
    "elev": 10,
    "lon": 55.44226,
    "lat": 25.42565,
    "isoregion": "AE-AJ",
    "country": "United Arab Emirates"
  },
  {
    "ident": "AE-0050",
    "type": "heliport",
    "name": "Ajman Palace Heliport",
    "elev": null,
    "lon": 55.441451,
    "lat": 25.394986,
    "isoregion": "AE-AJ",
    "country": "United Arab Emirates"
  },
  {
    "ident": "AE-0173",
    "type": "heliport",
    "name": "Fairmont Ajman North Jetty Heliport",
    "elev": 5,
    "lon": 55.43774,
    "lat": 25.41974,
    "isoregion": "AE-AJ",
    "country": "United Arab Emirates"
  },
  {
    "ident": "AE-0172",
    "type": "heliport",
    "name": "Fairmont Ajman South Jetty Heliport",
    "elev": 5,
    "lon": 55.4368,
    "lat": 25.41837,
    "isoregion": "AE-AJ",
    "country": "United Arab Emirates"
  },
  {
    "ident": "AE-0174",
    "type": "heliport",
    "name": "Ruler's Divan Heliport",
    "elev": 13,
    "lon": 55.44188,
    "lat": 25.41877,
    "isoregion": "AE-AJ",
    "country": "United Arab Emirates"
  },
  {
    "ident": "AE-0040",
    "type": "heliport",
    "name": "Safiya Beach Palace Heliport",
    "elev": null,
    "lon": 55.471788,
    "lat": 25.424981,
    "isoregion": "AE-AJ",
    "country": "United Arab Emirates"
  },
  {
    "ident": "AE-0171",
    "type": "heliport",
    "name": "Sheikh Ahmed al-Nuaimi Palace Heliport",
    "elev": 79,
    "lon": 55.5302,
    "lat": 25.39841,
    "isoregion": "AE-AJ",
    "country": "United Arab Emirates"
  },
  {
    "ident": "AE-0142",
    "type": "heliport",
    "name": "Sheikh Khalifa Hospital Masfout Heliport",
    "elev": 1199,
    "lon": 56.0742,
    "lat": 24.8199,
    "isoregion": "AE-AJ",
    "country": "United Arab Emirates"
  },
  {
    "ident": "AE-0176",
    "type": "heliport",
    "name": "Sheikh Rashid bin Humaid al-Nuaimi Mosque Heliport",
    "elev": 3,
    "lon": 55.43938,
    "lat": 25.40138,
    "isoregion": "AE-AJ",
    "country": "United Arab Emirates"
  },
  {
    "ident": "AE-0132",
    "type": "heliport",
    "name": "ADNOC Buhasa Heliport",
    "elev": 492,
    "lon": 53.29251,
    "lat": 23.54884,
    "isoregion": "AE-AZ",
    "country": "United Arab Emirates"
  },
  {
    "ident": "AE-0163",
    "type": "heliport",
    "name": "ADNOC HQ Building Helipad",
    "elev": null,
    "lon": 54.32404,
    "lat": 24.46201,
    "isoregion": "AE-AZ",
    "country": "United Arab Emirates"
  },
  {
    "ident": "AE-0133",
    "type": "heliport",
    "name": "ADNOC OPD Clinic Habshan Heliport",
    "elev": 230,
    "lon": 53.63014,
    "lat": 23.85862,
    "isoregion": "AE-AZ",
    "country": "United Arab Emirates"
  },
  {
    "ident": "AE-0145",
    "type": "heliport",
    "name": "ADNOC Offshore Central Island Heliport",
    "elev": null,
    "lon": 53.64946,
    "lat": 24.84651,
    "isoregion": "AE-AZ",
    "country": "United Arab Emirates"
  },
  {
    "ident": "AE-0147",
    "type": "heliport",
    "name": "ADNOC Offshore North Island Heliport",
    "elev": null,
    "lon": 53.720923,
    "lat": 24.903729,
    "isoregion": "AE-AZ",
    "country": "United Arab Emirates"
  },
  {
    "ident": "AE-0146",
    "type": "heliport",
    "name": "ADNOC Offshore South Island Heliport",
    "elev": null,
    "lon": 53.726775,
    "lat": 24.798385,
    "isoregion": "AE-AZ",
    "country": "United Arab Emirates"
  },
  {
    "ident": "AE-0125",
    "type": "heliport",
    "name": "ADNOC Onshore Qusahwira Heliport",
    "elev": 610,
    "lon": 54.78659,
    "lat": 22.71057,
    "isoregion": "AE-AZ",
    "country": "United Arab Emirates"
  },
  {
    "ident": "AE-0144",
    "type": "heliport",
    "name": "ADNOC Upper Zakum West Island Heliport",
    "elev": null,
    "lon": 53.49706,
    "lat": 24.83324,
    "isoregion": "AE-AZ",
    "country": "United Arab Emirates"
  },
  {
    "ident": "AE-0165",
    "type": "heliport",
    "name": "Abu Dhabi Helicopter Tour Heliport",
    "elev": 7,
    "lon": 54.32805,
    "lat": 24.47796,
    "isoregion": "AE-AZ",
    "country": "United Arab Emirates"
  },
  {
    "ident": "AE-0080",
    "type": "heliport",
    "name": "Al Ain Feed Mill Heliport",
    "elev": null,
    "lon": 55.751537,
    "lat": 24.339833,
    "isoregion": "AE-AZ",
    "country": "United Arab Emirates"
  },
  {
    "ident": "AE-0069",
    "type": "heliport",
    "name": "Al Ain Police Heliport",
    "elev": null,
    "lon": 55.741654,
    "lat": 24.233273,
    "isoregion": "AE-AZ",
    "country": "United Arab Emirates"
  },
  {
    "ident": "AE-0077",
    "type": "heliport",
    "name": "Al Ain Tawam Hospital North Heliport",
    "elev": null,
    "lon": 55.647577,
    "lat": 24.197767,
    "isoregion": "AE-AZ",
    "country": "United Arab Emirates"
  },
  {
    "ident": "AE-0078",
    "type": "heliport",
    "name": "Al Ain Tawam Hospital South Heliport",
    "elev": null,
    "lon": 55.649822,
    "lat": 24.193627,
    "isoregion": "AE-AZ",
    "country": "United Arab Emirates"
  },
  {
    "ident": "AE-0194",
    "type": "heliport",
    "name": "Al Bateen PGC Heliport",
    "elev": 10,
    "lon": 54.35629,
    "lat": 24.448,
    "isoregion": "AE-AZ",
    "country": "United Arab Emirates"
  },
  {
    "ident": "AE-0192",
    "type": "heliport",
    "name": "Al Bateen Palace West Helipad",
    "elev": 7,
    "lon": 54.35467,
    "lat": 24.44025,
    "isoregion": "AE-AZ",
    "country": "United Arab Emirates"
  },
  {
    "ident": "AE-0193",
    "type": "heliport",
    "name": "Al Bateen Palace West Inner Helipad",
    "elev": 10,
    "lon": 54.35689,
    "lat": 24.44205,
    "isoregion": "AE-AZ",
    "country": "United Arab Emirates"
  },
  {
    "ident": "AE-0139",
    "type": "heliport",
    "name": "Al Dhafra Beach Hotel Heliport",
    "elev": 19,
    "lon": 52.64576,
    "lat": 24.16273,
    "isoregion": "AE-AZ",
    "country": "United Arab Emirates"
  },
  {
    "ident": "AE-0130",
    "type": "heliport",
    "name": "Al Dhafrah New Hospital Heliport",
    "elev": 394,
    "lon": 53.678773,
    "lat": 23.657949,
    "isoregion": "AE-AZ",
    "country": "United Arab Emirates"
  },
  {
    "ident": "AE-0131",
    "type": "heliport",
    "name": "Al Dhafrah Old Hospital Heliport",
    "elev": 377,
    "lon": 53.67729,
    "lat": 23.65085,
    "isoregion": "AE-AZ",
    "country": "United Arab Emirates"
  },
  {
    "ident": "AE-0191",
    "type": "heliport",
    "name": "Al Fahim Palace Heliport",
    "elev": 7,
    "lon": 54.34828,
    "lat": 24.4479,
    "isoregion": "AE-AZ",
    "country": "United Arab Emirates"
  },
  {
    "ident": "AE-0023",
    "type": "heliport",
    "name": "Al Forsan Heliport",
    "elev": null,
    "lon": 54.543228,
    "lat": 24.408318,
    "isoregion": "AE-AZ",
    "country": "United Arab Emirates"
  },
  {
    "ident": "AE-0007",
    "type": "heliport",
    "name": "Al Ghuwaifat Border Post Helipad",
    "elev": 157,
    "lon": 51.600516,
    "lat": 24.120353,
    "isoregion": "AE-AZ",
    "country": "United Arab Emirates"
  },
  {
    "ident": "AE-0071",
    "type": "heliport",
    "name": "Al Jimi Civic Center Heliport",
    "elev": null,
    "lon": 55.737016,
    "lat": 24.240232,
    "isoregion": "AE-AZ",
    "country": "United Arab Emirates"
  },
  {
    "ident": "AE-0168",
    "type": "heliport",
    "name": "Al Manhal Palace Heliport",
    "elev": 3,
    "lon": 54.36139,
    "lat": 24.47829,
    "isoregion": "AE-AZ",
    "country": "United Arab Emirates"
  },
  {
    "ident": "AE-0079",
    "type": "heliport",
    "name": "Al Maqam Heliport",
    "elev": null,
    "lon": 55.64404,
    "lat": 24.172039,
    "isoregion": "AE-AZ",
    "country": "United Arab Emirates"
  },
  {
    "ident": "AE-0106",
    "type": "heliport",
    "name": "Al Marfa Hospital Heliport",
    "elev": 98,
    "lon": 53.50017,
    "lat": 24.08413,
    "isoregion": "AE-AZ",
    "country": "United Arab Emirates"
  },
  {
    "ident": "AE-0134",
    "type": "heliport",
    "name": "Al Marfa Power and Desalinization Plant Heliport",
    "elev": 16,
    "lon": 53.44088,
    "lat": 24.1134,
    "isoregion": "AE-AZ",
    "country": "United Arab Emirates"
  },
  {
    "ident": "AE-0022",
    "type": "heliport",
    "name": "Al Mushrif Palace Helipad",
    "elev": null,
    "lon": 54.377368,
    "lat": 24.452066,
    "isoregion": "AE-AZ",
    "country": "United Arab Emirates"
  },
  {
    "ident": "AE-0189",
    "type": "heliport",
    "name": "Al Muzoon Central Helipad",
    "elev": 7,
    "lon": 54.43895,
    "lat": 24.41212,
    "isoregion": "AE-AZ",
    "country": "United Arab Emirates"
  },
  {
    "ident": "AE-0190",
    "type": "heliport",
    "name": "Al Muzoon East Helipad",
    "elev": 17,
    "lon": 54.44253,
    "lat": 24.40972,
    "isoregion": "AE-AZ",
    "country": "United Arab Emirates"
  },
  {
    "ident": "AE-0188",
    "type": "heliport",
    "name": "Al Muzoon West Helipad",
    "elev": 16,
    "lon": 54.42005,
    "lat": 24.41685,
    "isoregion": "AE-AZ",
    "country": "United Arab Emirates"
  },
  {
    "ident": "AE-0156",
    "type": "heliport",
    "name": "Al Qurm Resort Heliport",
    "elev": 3,
    "lon": 54.40504,
    "lat": 24.41836,
    "isoregion": "AE-AZ",
    "country": "United Arab Emirates"
  },
  {
    "ident": "AE-0138",
    "type": "heliport",
    "name": "Al Ruwais Hospital Heliport",
    "elev": 72,
    "lon": 52.738266,
    "lat": 24.101287,
    "isoregion": "AE-AZ",
    "country": "United Arab Emirates"
  },
  {
    "ident": "AE-0067",
    "type": "heliport",
    "name": "Al Sarouj Helipad",
    "elev": null,
    "lon": 55.78561,
    "lat": 24.204892,
    "isoregion": "AE-AZ",
    "country": "United Arab Emirates"
  },
  {
    "ident": "AE-0025",
    "type": "heliport",
    "name": "Al Sila Former Hospital Heliport",
    "elev": 135,
    "lon": 51.762519,
    "lat": 24.068301,
    "isoregion": "AE-AZ",
    "country": "United Arab Emirates"
  },
  {
    "ident": "AE-0096",
    "type": "heliport",
    "name": "Al Sila Hospital Heliport",
    "elev": 138,
    "lon": 51.75707,
    "lat": 24.0433,
    "isoregion": "AE-AZ",
    "country": "United Arab Emirates"
  },
  {
    "ident": "AE-0076",
    "type": "heliport",
    "name": "Asab Clinic Heliport",
    "elev": null,
    "lon": 54.227364,
    "lat": 23.296093,
    "isoregion": "AE-AZ",
    "country": "United Arab Emirates"
  },
  {
    "ident": "AE-0075",
    "type": "heliport",
    "name": "Asab Heliport",
    "elev": null,
    "lon": 54.223716,
    "lat": 23.299648,
    "isoregion": "AE-AZ",
    "country": "United Arab Emirates"
  },
  {
    "ident": "AE-0098",
    "type": "heliport",
    "name": "Barakah ENEC Heliport",
    "elev": 13,
    "lon": 52.26672,
    "lat": 23.97948,
    "isoregion": "AE-AZ",
    "country": "United Arab Emirates"
  },
  {
    "ident": "AE-0099",
    "type": "heliport",
    "name": "Barakah East Heliport",
    "elev": 20,
    "lon": 52.27436,
    "lat": 23.98029,
    "isoregion": "AE-AZ",
    "country": "United Arab Emirates"
  },
  {
    "ident": "AE-0097",
    "type": "heliport",
    "name": "Barakah Nuclear Power Plant Heliport",
    "elev": 20,
    "lon": 52.24415,
    "lat": 23.96345,
    "isoregion": "AE-AZ",
    "country": "United Arab Emirates"
  },
  {
    "ident": "AE-0074",
    "type": "heliport",
    "name": "Bateen Liwa Heliport",
    "elev": null,
    "lon": 53.971761,
    "lat": 22.971717,
    "isoregion": "AE-AZ",
    "country": "United Arab Emirates"
  },
  {
    "ident": "AE-0100",
    "type": "heliport",
    "name": "Bu Tinah Heliport",
    "elev": null,
    "lon": 53.048079,
    "lat": 24.628764,
    "isoregion": "AE-AZ",
    "country": "United Arab Emirates"
  },
  {
    "ident": "AE-0169",
    "type": "heliport",
    "name": "Burjeel Medical City Heliport",
    "elev": null,
    "lon": 54.53849,
    "lat": 24.35473,
    "isoregion": "AE-AZ",
    "country": "United Arab Emirates"
  },
  {
    "ident": "AE-0150",
    "type": "heliport",
    "name": "Camp Al Hamra Heliport",
    "elev": 62,
    "lon": 52.44858,
    "lat": 24.05377,
    "isoregion": "AE-AZ",
    "country": "United Arab Emirates"
  },
  {
    "ident": "AE-0028",
    "type": "heliport",
    "name": "Crown Prince Court Helipad 1",
    "elev": null,
    "lon": 54.34601,
    "lat": 24.45362,
    "isoregion": "AE-AZ",
    "country": "United Arab Emirates"
  },
  {
    "ident": "AE-0029",
    "type": "heliport",
    "name": "Crown Prince Court Helipad 2",
    "elev": null,
    "lon": 54.34625,
    "lat": 24.45439,
    "isoregion": "AE-AZ",
    "country": "United Arab Emirates"
  },
  {
    "ident": "AE-0009",
    "type": "heliport",
    "name": "Delma Hospital Helipad",
    "elev": 17,
    "lon": 52.3101,
    "lat": 24.4756,
    "isoregion": "AE-AZ",
    "country": "United Arab Emirates"
  },
  {
    "ident": "AE-0152",
    "type": "heliport",
    "name": "Erth Abu Dhabi Heliport",
    "elev": 13,
    "lon": 54.4718,
    "lat": 24.4038,
    "isoregion": "AE-AZ",
    "country": "United Arab Emirates"
  },
  {
    "ident": "AE-0135",
    "type": "heliport",
    "name": "Etihad Rail Depot Heliport",
    "elev": 23,
    "lon": 53.33346,
    "lat": 24.05161,
    "isoregion": "AE-AZ",
    "country": "United Arab Emirates"
  },
  {
    "ident": "AE-0030",
    "type": "heliport",
    "name": "Federal National Council Helipad",
    "elev": null,
    "lon": 54.33235,
    "lat": 24.46258,
    "isoregion": "AE-AZ",
    "country": "United Arab Emirates"
  },
  {
    "ident": "AE-0154",
    "type": "heliport",
    "name": "First Abu Dhabi Bank Heliport",
    "elev": 13,
    "lon": 54.46506,
    "lat": 24.41278,
    "isoregion": "AE-AZ",
    "country": "United Arab Emirates"
  },
  {
    "ident": "AE-0164",
    "type": "heliport",
    "name": "Founders Memorial Heliport",
    "elev": null,
    "lon": 54.3214,
    "lat": 24.46249,
    "isoregion": "AE-AZ",
    "country": "United Arab Emirates"
  },
  {
    "ident": "AE-0016",
    "type": "heliport",
    "name": "Ghantoot Hotel 1 Helipad",
    "elev": null,
    "lon": 54.88826,
    "lat": 24.866038,
    "isoregion": "AE-AZ",
    "country": "United Arab Emirates"
  },
  {
    "ident": "AE-0017",
    "type": "heliport",
    "name": "Ghantoot Hotel 2 Helipad",
    "elev": null,
    "lon": 54.882283,
    "lat": 24.865417,
    "isoregion": "AE-AZ",
    "country": "United Arab Emirates"
  },
  {
    "ident": "AE-0018",
    "type": "heliport",
    "name": "Ghantoot Hotel 3 Helipad",
    "elev": null,
    "lon": 54.860294,
    "lat": 24.894949,
    "isoregion": "AE-AZ",
    "country": "United Arab Emirates"
  },
  {
    "ident": "AE-0014",
    "type": "heliport",
    "name": "Ghantoot Racing & Polo Club Helipad",
    "elev": null,
    "lon": 54.905556,
    "lat": 24.86824,
    "isoregion": "AE-AZ",
    "country": "United Arab Emirates"
  },
  {
    "ident": "AE-0105",
    "type": "heliport",
    "name": "Ghayathi New Community Hospital Heliport",
    "elev": 210,
    "lon": 52.80321,
    "lat": 23.89833,
    "isoregion": "AE-AZ",
    "country": "United Arab Emirates"
  },
  {
    "ident": "AE-0015",
    "type": "heliport",
    "name": "Golden Tulip Al Jazira Helipad",
    "elev": null,
    "lon": 54.894996,
    "lat": 24.858628,
    "isoregion": "AE-AZ",
    "country": "United Arab Emirates"
  },
  {
    "ident": "AE-0166",
    "type": "heliport",
    "name": "InterContinental Abu Dhabi Helipad",
    "elev": null,
    "lon": 54.32894,
    "lat": 24.4576,
    "isoregion": "AE-AZ",
    "country": "United Arab Emirates"
  },
  {
    "ident": "AE-0167",
    "type": "heliport",
    "name": "InterContinental Abu Dhabi Marina Heliport",
    "elev": 7,
    "lon": 54.32725,
    "lat": 24.45734,
    "isoregion": "AE-AZ",
    "country": "United Arab Emirates"
  },
  {
    "ident": "AE-0087",
    "type": "heliport",
    "name": "Khardal Heliport",
    "elev": 20,
    "lon": 51.543313,
    "lat": 24.435946,
    "isoregion": "AE-AZ",
    "country": "United Arab Emirates"
  },
  {
    "ident": "AE-0136",
    "type": "heliport",
    "name": "Khasbat al Reem Heliport",
    "elev": null,
    "lon": 53.27715,
    "lat": 24.12818,
    "isoregion": "AE-AZ",
    "country": "United Arab Emirates"
  },
  {
    "ident": "AE-0081",
    "type": "heliport",
    "name": "Mezyad Police Heliport",
    "elev": null,
    "lon": 55.846326,
    "lat": 24.028763,
    "isoregion": "AE-AZ",
    "country": "United Arab Emirates"
  },
  {
    "ident": "AE-0157",
    "type": "heliport",
    "name": "Ministry of Foreign Affairs and International Cooperation Heliport",
    "elev": 13,
    "lon": 54.3307,
    "lat": 24.45416,
    "isoregion": "AE-AZ",
    "country": "United Arab Emirates"
  },
  {
    "ident": "AE-0101",
    "type": "heliport",
    "name": "Mubarraz Island Heliport",
    "elev": 13,
    "lon": 53.37373,
    "lat": 24.45684,
    "isoregion": "AE-AZ",
    "country": "United Arab Emirates"
  },
  {
    "ident": "AE-0031",
    "type": "heliport",
    "name": "Nation Tower Helipad",
    "elev": null,
    "lon": 54.327638,
    "lat": 24.463993,
    "isoregion": "AE-AZ",
    "country": "United Arab Emirates"
  },
  {
    "ident": "AE-0033",
    "type": "heliport",
    "name": "Paragon Bay Helipad",
    "elev": null,
    "lon": 54.39109,
    "lat": 24.4898,
    "isoregion": "AE-AZ",
    "country": "United Arab Emirates"
  },
  {
    "ident": "AE-0034",
    "type": "heliport",
    "name": "Paragon Bay North Helipad",
    "elev": null,
    "lon": 54.39376,
    "lat": 24.49421,
    "isoregion": "AE-AZ",
    "country": "United Arab Emirates"
  },
  {
    "ident": "AE-0137",
    "type": "heliport",
    "name": "Qareen al Aish Heliport",
    "elev": 26,
    "lon": 53.14781,
    "lat": 24.16568,
    "isoregion": "AE-AZ",
    "country": "United Arab Emirates"
  },
  {
    "ident": "AE-0036",
    "type": "heliport",
    "name": "Qasr al Bahr Heliport",
    "elev": null,
    "lon": 54.40819,
    "lat": 24.46465,
    "isoregion": "AE-AZ",
    "country": "United Arab Emirates"
  },
  {
    "ident": "AE-0072",
    "type": "heliport",
    "name": "Qasr al Sarab Desert Resort Heliport",
    "elev": null,
    "lon": 54.339185,
    "lat": 22.898675,
    "isoregion": "AE-AZ",
    "country": "United Arab Emirates"
  },
  {
    "ident": "AE-0073",
    "type": "heliport",
    "name": "Qasr al Sarab Royal Pavilion Heliport",
    "elev": null,
    "lon": 54.334232,
    "lat": 22.894094,
    "isoregion": "AE-AZ",
    "country": "United Arab Emirates"
  },
  {
    "ident": "AE-0159",
    "type": "heliport",
    "name": "Qasr al Watan Heliport",
    "elev": 6,
    "lon": 54.30382,
    "lat": 24.45634,
    "isoregion": "AE-AZ",
    "country": "United Arab Emirates"
  },
  {
    "ident": "AE-0161",
    "type": "heliport",
    "name": "Qasr al Watan Lawn Heliport",
    "elev": 3,
    "lon": 54.31096,
    "lat": 24.46027,
    "isoregion": "AE-AZ",
    "country": "United Arab Emirates"
  },
  {
    "ident": "AE-0104",
    "type": "heliport",
    "name": "Qassar Bu Sheyarrah Heliport",
    "elev": null,
    "lon": 54.34751,
    "lat": 24.37842,
    "isoregion": "AE-AZ",
    "country": "United Arab Emirates"
  },
  {
    "ident": "AE-0103",
    "type": "heliport",
    "name": "Ras Bu Kushayshah Heliport",
    "elev": 16,
    "lon": 54.18142,
    "lat": 24.30378,
    "isoregion": "AE-AZ",
    "country": "United Arab Emirates"
  },
  {
    "ident": "AE-0148",
    "type": "heliport",
    "name": "SARB North Island Heliport",
    "elev": null,
    "lon": 53.210654,
    "lat": 24.79665,
    "isoregion": "AE-AZ",
    "country": "United Arab Emirates"
  },
  {
    "ident": "AE-0149",
    "type": "heliport",
    "name": "SARB South Island Heliport",
    "elev": null,
    "lon": 53.197539,
    "lat": 24.737717,
    "isoregion": "AE-AZ",
    "country": "United Arab Emirates"
  },
  {
    "ident": "AE-0102",
    "type": "heliport",
    "name": "Salahah Heliport",
    "elev": 7,
    "lon": 53.53772,
    "lat": 24.2008,
    "isoregion": "AE-AZ",
    "country": "United Arab Emirates"
  },
  {
    "ident": "AE-0035",
    "type": "heliport",
    "name": "Sea Palace Helipad",
    "elev": null,
    "lon": 54.41083,
    "lat": 24.46919,
    "isoregion": "AE-AZ",
    "country": "United Arab Emirates"
  },
  {
    "ident": "AE-0158",
    "type": "heliport",
    "name": "Shati as Sayyidat Heliport",
    "elev": 3,
    "lon": 54.30173,
    "lat": 24.46149,
    "isoregion": "AE-AZ",
    "country": "United Arab Emirates"
  },
  {
    "ident": "AE-0153",
    "type": "heliport",
    "name": "Sheikh Hazza bin Zayed Palace Heliport",
    "elev": 16,
    "lon": 54.48453,
    "lat": 24.39592,
    "isoregion": "AE-AZ",
    "country": "United Arab Emirates"
  },
  {
    "ident": "AE-0032",
    "type": "heliport",
    "name": "Sheikh Khalifa Medical City Heliport",
    "elev": null,
    "lon": 54.3633,
    "lat": 24.47075,
    "isoregion": "AE-AZ",
    "country": "United Arab Emirates"
  },
  {
    "ident": "AE-0070",
    "type": "heliport",
    "name": "Sheikh Khalifa Mosque Heliport",
    "elev": null,
    "lon": 55.745309,
    "lat": 24.226351,
    "isoregion": "AE-AZ",
    "country": "United Arab Emirates"
  },
  {
    "ident": "AE-0068",
    "type": "heliport",
    "name": "Sheikh Khalifa Palace Heliport",
    "elev": null,
    "lon": 55.756117,
    "lat": 24.22204,
    "isoregion": "AE-AZ",
    "country": "United Arab Emirates"
  },
  {
    "ident": "AE-0162",
    "type": "heliport",
    "name": "Sheikh Sultan bin Zayed I Mosque Heliport",
    "elev": 3,
    "lon": 54.34783,
    "lat": 24.45068,
    "isoregion": "AE-AZ",
    "country": "United Arab Emirates"
  },
  {
    "ident": "AE-0151",
    "type": "heliport",
    "name": "Shuweihat Power Complex Heliport",
    "elev": 3,
    "lon": 52.56739,
    "lat": 24.15646,
    "isoregion": "AE-AZ",
    "country": "United Arab Emirates"
  },
  {
    "ident": "AE-0160",
    "type": "heliport",
    "name": "Supreme Council for National Security Heliport",
    "elev": 6,
    "lon": 54.30535,
    "lat": 24.45488,
    "isoregion": "AE-AZ",
    "country": "United Arab Emirates"
  },
  {
    "ident": "AE-0066",
    "type": "heliport",
    "name": "Technology College Helipad",
    "elev": null,
    "lon": 55.720791,
    "lat": 24.173952,
    "isoregion": "AE-AZ",
    "country": "United Arab Emirates"
  },
  {
    "ident": "AE-0170",
    "type": "heliport",
    "name": "Yas Island Civil Defence Heliport",
    "elev": 3,
    "lon": 54.60364,
    "lat": 24.49544,
    "isoregion": "AE-AZ",
    "country": "United Arab Emirates"
  },
  {
    "ident": "AE-0021",
    "type": "heliport",
    "name": "Yas Marina Circuit Heliport",
    "elev": null,
    "lon": 54.603443,
    "lat": 24.469136,
    "isoregion": "AE-AZ",
    "country": "United Arab Emirates"
  },
  {
    "ident": "AE-0020",
    "type": "heliport",
    "name": "Yas Marina Heliport",
    "elev": null,
    "lon": 54.609561,
    "lat": 24.468368,
    "isoregion": "AE-AZ",
    "country": "United Arab Emirates"
  },
  {
    "ident": "AE-0155",
    "type": "heliport",
    "name": "Zayed Military Hospital Heliport",
    "elev": 10,
    "lon": 54.42859,
    "lat": 24.42143,
    "isoregion": "AE-AZ",
    "country": "United Arab Emirates"
  },
  {
    "ident": "AE-0002",
    "type": "heliport",
    "name": "Burj al Arab Resort Helipad",
    "elev": 689,
    "lon": 55.185496,
    "lat": 25.141327,
    "isoregion": "AE-DU",
    "country": "United Arab Emirates"
  },
  {
    "ident": "AE-0019",
    "type": "heliport",
    "name": "Dubai Festival City Helipad",
    "elev": null,
    "lon": 55.349227,
    "lat": 25.220765,
    "isoregion": "AE-DU",
    "country": "United Arab Emirates"
  },
  {
    "ident": "AE-0095",
    "type": "heliport",
    "name": "Dubai Safari Park Heliport",
    "elev": 144,
    "lon": 55.45979,
    "lat": 25.17426,
    "isoregion": "AE-DU",
    "country": "United Arab Emirates"
  },
  {
    "ident": "AE-0013",
    "type": "heliport",
    "name": "Oceana Palm Jumeirah Helipad",
    "elev": null,
    "lon": 55.135169,
    "lat": 25.110083,
    "isoregion": "AE-DU",
    "country": "United Arab Emirates"
  },
  {
    "ident": "AE-0011",
    "type": "heliport",
    "name": "Palm Jumeirah Heliport",
    "elev": null,
    "lon": 55.114092,
    "lat": 25.127297,
    "isoregion": "AE-DU",
    "country": "United Arab Emirates"
  },
  {
    "ident": "AE-0108",
    "type": "heliport",
    "name": "Private Island Heliport",
    "elev": null,
    "lon": 55.22908,
    "lat": 25.19858,
    "isoregion": "AE-DU",
    "country": "United Arab Emirates"
  },
  {
    "ident": "AE-0126",
    "type": "heliport",
    "name": "Qusahwira Palace Heliport",
    "elev": 325,
    "lon": 54.8218,
    "lat": 22.82259,
    "isoregion": "AE-DU",
    "country": "United Arab Emirates"
  },
  {
    "ident": "AE-0037",
    "type": "heliport",
    "name": "Rixos Helipad",
    "elev": null,
    "lon": 55.15236,
    "lat": 25.11907,
    "isoregion": "AE-DU",
    "country": "United Arab Emirates"
  },
  {
    "ident": "AE-0010",
    "type": "heliport",
    "name": "Schumacher Heliport",
    "elev": null,
    "lon": 55.138836,
    "lat": 25.221807,
    "isoregion": "AE-DU",
    "country": "United Arab Emirates"
  },
  {
    "ident": "AE-0004",
    "type": "heliport",
    "name": "Sheikh Sultan Bin Khalifa bin Zayed Al Nahyan Palace Heliport",
    "elev": null,
    "lon": 55.174681,
    "lat": 25.122566,
    "isoregion": "AE-DU",
    "country": "United Arab Emirates"
  },
  {
    "ident": "AE-0012",
    "type": "heliport",
    "name": "Waldorf Astoria Dubai Palm Jumeirah Helipad",
    "elev": null,
    "lon": 55.150379,
    "lat": 25.133372,
    "isoregion": "AE-DU",
    "country": "United Arab Emirates"
  },
  {
    "ident": "AE-0038",
    "type": "heliport",
    "name": "Waldorf Astoria Dubai Palm Jumeirah Helipad",
    "elev": null,
    "lon": 55.15038,
    "lat": 25.13335,
    "isoregion": "AE-DU",
    "country": "United Arab Emirates"
  },
  {
    "ident": "AE-0178",
    "type": "heliport",
    "name": "Al Hail Corniche Tower Heliport",
    "elev": null,
    "lon": 56.35495,
    "lat": 25.12752,
    "isoregion": "AE-FU",
    "country": "United Arab Emirates"
  },
  {
    "ident": "AE-0183",
    "type": "heliport",
    "name": "Chocolate Palace Helipad",
    "elev": null,
    "lon": 56.32079,
    "lat": 25.12273,
    "isoregion": "AE-FU",
    "country": "United Arab Emirates"
  },
  {
    "ident": "AE-0179",
    "type": "heliport",
    "name": "City Center Building Heliport",
    "elev": null,
    "lon": 56.32272,
    "lat": 25.12345,
    "isoregion": "AE-FU",
    "country": "United Arab Emirates"
  },
  {
    "ident": "AE-0182",
    "type": "heliport",
    "name": "Creative Tower Helipad",
    "elev": null,
    "lon": 56.32483,
    "lat": 25.12267,
    "isoregion": "AE-FU",
    "country": "United Arab Emirates"
  },
  {
    "ident": "AE-0143",
    "type": "heliport",
    "name": "Dibba Hospital Heliport",
    "elev": 56,
    "lon": 56.26447,
    "lat": 25.58825,
    "isoregion": "AE-FU",
    "country": "United Arab Emirates"
  },
  {
    "ident": "AE-0181",
    "type": "heliport",
    "name": "Farouj al Wadi Building Helipad",
    "elev": null,
    "lon": 56.32392,
    "lat": 25.12273,
    "isoregion": "AE-FU",
    "country": "United Arab Emirates"
  },
  {
    "ident": "AE-0184",
    "type": "heliport",
    "name": "Festival Square Heliport",
    "elev": 82,
    "lon": 56.31949,
    "lat": 25.13139,
    "isoregion": "AE-FU",
    "country": "United Arab Emirates"
  },
  {
    "ident": "AE-0084",
    "type": "heliport",
    "name": "Fujairah Naval Heliport",
    "elev": null,
    "lon": 56.36275,
    "lat": 25.254273,
    "isoregion": "AE-FU",
    "country": "United Arab Emirates"
  },
  {
    "ident": "AE-0185",
    "type": "heliport",
    "name": "Fujairah Palace Heliport",
    "elev": 66,
    "lon": 56.32165,
    "lat": 25.13477,
    "isoregion": "AE-FU",
    "country": "United Arab Emirates"
  },
  {
    "ident": "AE-0180",
    "type": "heliport",
    "name": "Nama Tower Helipad",
    "elev": null,
    "lon": 56.32215,
    "lat": 25.12277,
    "isoregion": "AE-FU",
    "country": "United Arab Emirates"
  },
  {
    "ident": "AE-0177",
    "type": "heliport",
    "name": "Sheikh Khalifa Central Hospital Heliport",
    "elev": null,
    "lon": 56.35365,
    "lat": 25.14824,
    "isoregion": "AE-FU",
    "country": "United Arab Emirates"
  },
  {
    "ident": "AE-0082",
    "type": "heliport",
    "name": "Al Husayn Border Crossing Helipad",
    "elev": null,
    "lon": 56.277941,
    "lat": 24.877845,
    "isoregion": "AE-RK",
    "country": "United Arab Emirates"
  },
  {
    "ident": "AE-0186",
    "type": "heliport",
    "name": "Ibrahim bin Hamad Obaidullah Hospital Heliport",
    "elev": 13,
    "lon": 55.98167,
    "lat": 25.79653,
    "isoregion": "AE-RK",
    "country": "United Arab Emirates"
  },
  {
    "ident": "AE-0085",
    "type": "heliport",
    "name": "Masafi Heliport",
    "elev": null,
    "lon": 56.168715,
    "lat": 25.297628,
    "isoregion": "AE-RK",
    "country": "United Arab Emirates"
  },
  {
    "ident": "AE-0140",
    "type": "heliport",
    "name": "Masafi Hospital Heliport",
    "elev": 1463,
    "lon": 56.16429,
    "lat": 25.29812,
    "isoregion": "AE-RK",
    "country": "United Arab Emirates"
  },
  {
    "ident": "AE-0109",
    "type": "heliport",
    "name": "Sheikh Khalifa Specialty Hospital Heliport",
    "elev": 90,
    "lon": 55.84052,
    "lat": 25.62272,
    "isoregion": "AE-RK",
    "country": "United Arab Emirates"
  },
  {
    "ident": "AE-0187",
    "type": "heliport",
    "name": "Wadi Bih Military Camp Heliport",
    "elev": 610,
    "lon": 56.1238,
    "lat": 25.83497,
    "isoregion": "AE-RK",
    "country": "United Arab Emirates"
  },
  {
    "ident": "AE-0045",
    "type": "heliport",
    "name": "Al Batha Tower Helipad",
    "elev": null,
    "lon": 55.389197,
    "lat": 25.334192,
    "isoregion": "AE-SH",
    "country": "United Arab Emirates"
  },
  {
    "ident": "AE-0044",
    "type": "heliport",
    "name": "Al Dana Tower Helipad",
    "elev": null,
    "lon": 55.388949,
    "lat": 25.3344,
    "isoregion": "AE-SH",
    "country": "United Arab Emirates"
  },
  {
    "ident": "AE-0110",
    "type": "heliport",
    "name": "Al Dhaid Heliport",
    "elev": 348,
    "lon": 55.86396,
    "lat": 25.31346,
    "isoregion": "AE-SH",
    "country": "United Arab Emirates"
  },
  {
    "ident": "AE-0114",
    "type": "heliport",
    "name": "Al Dhaid Hospital Heliport",
    "elev": 400,
    "lon": 55.89288,
    "lat": 25.27907,
    "isoregion": "AE-SH",
    "country": "United Arab Emirates"
  },
  {
    "ident": "AE-0111",
    "type": "heliport",
    "name": "Al Dhaid Palace Central Heliport",
    "elev": 354,
    "lon": 55.870014,
    "lat": 25.315298,
    "isoregion": "AE-SH",
    "country": "United Arab Emirates"
  },
  {
    "ident": "AE-0112",
    "type": "heliport",
    "name": "Al Dhaid Palace East Heliport",
    "elev": 436,
    "lon": 55.87334,
    "lat": 25.31472,
    "isoregion": "AE-SH",
    "country": "United Arab Emirates"
  },
  {
    "ident": "AE-0054",
    "type": "heliport",
    "name": "Al Falasi Building Helipad",
    "elev": null,
    "lon": 55.392614,
    "lat": 25.363779,
    "isoregion": "AE-SH",
    "country": "United Arab Emirates"
  },
  {
    "ident": "AE-0056",
    "type": "heliport",
    "name": "Al Ferasa Tower Helipad",
    "elev": null,
    "lon": 55.386467,
    "lat": 25.342531,
    "isoregion": "AE-SH",
    "country": "United Arab Emirates"
  },
  {
    "ident": "AE-0053",
    "type": "heliport",
    "name": "Al Majarrah Building Helipad",
    "elev": null,
    "lon": 55.391653,
    "lat": 25.363914,
    "isoregion": "AE-SH",
    "country": "United Arab Emirates"
  },
  {
    "ident": "AE-0064",
    "type": "heliport",
    "name": "Al Majaz Pearl Tower Helipad",
    "elev": null,
    "lon": 55.391708,
    "lat": 25.329317,
    "isoregion": "AE-SH",
    "country": "United Arab Emirates"
  },
  {
    "ident": "AE-0124",
    "type": "heliport",
    "name": "Al Qassimi Hospital Heliport",
    "elev": 43,
    "lon": 55.43171,
    "lat": 25.34018,
    "isoregion": "AE-SH",
    "country": "United Arab Emirates"
  },
  {
    "ident": "AE-0052",
    "type": "heliport",
    "name": "Al Saud Building Helipad",
    "elev": null,
    "lon": 55.391514,
    "lat": 25.363744,
    "isoregion": "AE-SH",
    "country": "United Arab Emirates"
  },
  {
    "ident": "AE-0059",
    "type": "heliport",
    "name": "Ali Al Qubaisi Building Helipad",
    "elev": null,
    "lon": 55.387252,
    "lat": 25.338382,
    "isoregion": "AE-SH",
    "country": "United Arab Emirates"
  },
  {
    "ident": "AE-0055",
    "type": "heliport",
    "name": "Bel Rasheed Building Helipad",
    "elev": null,
    "lon": 55.385882,
    "lat": 25.342979,
    "isoregion": "AE-SH",
    "country": "United Arab Emirates"
  },
  {
    "ident": "AE-0062",
    "type": "heliport",
    "name": "Buheira Building Helipad",
    "elev": null,
    "lon": 55.390495,
    "lat": 25.33234,
    "isoregion": "AE-SH",
    "country": "United Arab Emirates"
  },
  {
    "ident": "AE-0063",
    "type": "heliport",
    "name": "Business Tower Sharjah Helipad",
    "elev": null,
    "lon": 55.391399,
    "lat": 25.32954,
    "isoregion": "AE-SH",
    "country": "United Arab Emirates"
  },
  {
    "ident": "AE-0061",
    "type": "heliport",
    "name": "Crystal Tower Helipad",
    "elev": null,
    "lon": 55.387194,
    "lat": 25.337354,
    "isoregion": "AE-SH",
    "country": "United Arab Emirates"
  },
  {
    "ident": "AE-0093",
    "type": "heliport",
    "name": "Dr. Sultan Al Qasimi Centre Heliport",
    "elev": 56,
    "lon": 55.468881,
    "lat": 25.281026,
    "isoregion": "AE-SH",
    "country": "United Arab Emirates"
  },
  {
    "ident": "AE-0057",
    "type": "heliport",
    "name": "Golden Tower Helipad",
    "elev": null,
    "lon": 55.385799,
    "lat": 25.341498,
    "isoregion": "AE-SH",
    "country": "United Arab Emirates"
  },
  {
    "ident": "AE-0046",
    "type": "heliport",
    "name": "Gulf Building Helipad",
    "elev": null,
    "lon": 55.38877,
    "lat": 25.335051,
    "isoregion": "AE-SH",
    "country": "United Arab Emirates"
  },
  {
    "ident": "AE-0094",
    "type": "heliport",
    "name": "Higher Colleges of Technology Heliport",
    "elev": 59,
    "lon": 55.47717,
    "lat": 25.2925,
    "isoregion": "AE-SH",
    "country": "United Arab Emirates"
  },
  {
    "ident": "AE-0141",
    "type": "heliport",
    "name": "Kalba Hospital Heliport",
    "elev": 7,
    "lon": 56.3433,
    "lat": 25.03436,
    "isoregion": "AE-SH",
    "country": "United Arab Emirates"
  },
  {
    "ident": "AE-0083",
    "type": "heliport",
    "name": "Khatmat Malaha Bording Crossing Helipad",
    "elev": null,
    "lon": 56.36033,
    "lat": 24.983315,
    "isoregion": "AE-SH",
    "country": "United Arab Emirates"
  },
  {
    "ident": "AE-0058",
    "type": "heliport",
    "name": "Latifa Tower Helipad",
    "elev": null,
    "lon": 55.386517,
    "lat": 25.338862,
    "isoregion": "AE-SH",
    "country": "United Arab Emirates"
  },
  {
    "ident": "AE-0122",
    "type": "heliport",
    "name": "SEHA Sharjah Heliport",
    "elev": 151,
    "lon": 55.59855,
    "lat": 25.31817,
    "isoregion": "AE-SH",
    "country": "United Arab Emirates"
  },
  {
    "ident": "AE-0060",
    "type": "heliport",
    "name": "Saleh bin Lahej Tower Helipad",
    "elev": null,
    "lon": 55.38774,
    "lat": 25.337328,
    "isoregion": "AE-SH",
    "country": "United Arab Emirates"
  },
  {
    "ident": "AE-0043",
    "type": "heliport",
    "name": "Sharjah Government Helipad",
    "elev": null,
    "lon": 55.425642,
    "lat": 25.35626,
    "isoregion": "AE-SH",
    "country": "United Arab Emirates"
  },
  {
    "ident": "AE-0051",
    "type": "heliport",
    "name": "Sharjah Heliport",
    "elev": null,
    "lon": 55.374724,
    "lat": 25.343769,
    "isoregion": "AE-SH",
    "country": "United Arab Emirates"
  },
  {
    "ident": "AE-0123",
    "type": "heliport",
    "name": "Sharjah Police Headquarters Heliport",
    "elev": 151,
    "lon": 55.59935,
    "lat": 25.32108,
    "isoregion": "AE-SH",
    "country": "United Arab Emirates"
  },
  {
    "ident": "AE-0049",
    "type": "heliport",
    "name": "Sharjah Police Heliport",
    "elev": null,
    "lon": 55.462331,
    "lat": 25.325378,
    "isoregion": "AE-SH",
    "country": "United Arab Emirates"
  },
  {
    "ident": "AE-0048",
    "type": "heliport",
    "name": "Sultaco Building Helipad",
    "elev": null,
    "lon": 55.388855,
    "lat": 25.337221,
    "isoregion": "AE-SH",
    "country": "United Arab Emirates"
  },
  {
    "ident": "AE-0047",
    "type": "heliport",
    "name": "United Arab Bank Tower Helipad",
    "elev": null,
    "lon": 55.38784,
    "lat": 25.335952,
    "isoregion": "AE-SH",
    "country": "United Arab Emirates"
  },
  {
    "ident": "AE-0119",
    "type": "heliport",
    "name": "54 Sheik Ahmed Bin Rashid Al Moalla Street Heliport",
    "elev": 7,
    "lon": 55.56211,
    "lat": 25.55533,
    "isoregion": "AE-UQ",
    "country": "United Arab Emirates"
  },
  {
    "ident": "AE-0113",
    "type": "heliport",
    "name": "Falaj Al Mualla Fort Heliport",
    "elev": 318,
    "lon": 55.84985,
    "lat": 25.35175,
    "isoregion": "AE-UQ",
    "country": "United Arab Emirates"
  },
  {
    "ident": "AE-0005",
    "type": "heliport",
    "name": "Kempinski Emirates Palace Twin Heliport",
    "elev": null,
    "lon": 54.320529,
    "lat": 24.462095,
    "isoregion": "AE-UQ",
    "country": "United Arab Emirates"
  },
  {
    "ident": "AE-0121",
    "type": "heliport",
    "name": "Leatain 2 Heliport",
    "elev": 7,
    "lon": 55.5679,
    "lat": 25.51989,
    "isoregion": "AE-UQ",
    "country": "United Arab Emirates"
  },
  {
    "ident": "AE-0116",
    "type": "heliport",
    "name": "Sheikh Khalifa General Hospital Heliport",
    "elev": 36,
    "lon": 55.59768,
    "lat": 25.50068,
    "isoregion": "AE-UQ",
    "country": "United Arab Emirates"
  },
  {
    "ident": "AE-0042",
    "type": "heliport",
    "name": "Sheikh Khalifa Hall Heliport",
    "elev": 26,
    "lon": 55.597667,
    "lat": 25.506541,
    "isoregion": "AE-UQ",
    "country": "United Arab Emirates"
  },
  {
    "ident": "AE-0120",
    "type": "heliport",
    "name": "Sheikh Rashid bin Ahmed Al Mualla Palace Heliport",
    "elev": 7,
    "lon": 55.56231,
    "lat": 25.52502,
    "isoregion": "AE-UQ",
    "country": "United Arab Emirates"
  },
  {
    "ident": "AE-0118",
    "type": "heliport",
    "name": "Umm al-Quwain Dewan Heliport",
    "elev": 3,
    "lon": 55.56704,
    "lat": 25.5715,
    "isoregion": "AE-UQ",
    "country": "United Arab Emirates"
  },
  {
    "ident": "AE-0041",
    "type": "heliport",
    "name": "Umm al-Quwain Government Heliport",
    "elev": 23,
    "lon": 55.592879,
    "lat": 25.513418,
    "isoregion": "AE-UQ",
    "country": "United Arab Emirates"
  },
  {
    "ident": "AE-0117",
    "type": "heliport",
    "name": "Umm al-Quwain Marine Old Town Heliport",
    "elev": 7,
    "lon": 55.57988,
    "lat": 25.60024,
    "isoregion": "AE-UQ",
    "country": "United Arab Emirates"
  },
  {
    "ident": "OATD",
    "type": "heliport",
    "name": "Toorghodi Heliport",
    "elev": 2600,
    "lon": 62.29059982299805,
    "lat": 35.222198486328125,
    "isoregion": "AF-HER",
    "country": "Afghanistan"
  },
  {
    "ident": "AF-0008",
    "type": "heliport",
    "name": "Camp Qargha North Heliport",
    "elev": null,
    "lon": 69.06869,
    "lat": 34.548535,
    "isoregion": "AF-KAB",
    "country": "Afghanistan"
  },
  {
    "ident": "AF-0009",
    "type": "heliport",
    "name": "Camp Qargha South Heliport",
    "elev": null,
    "lon": 69.071963,
    "lat": 34.539752,
    "isoregion": "AF-KAB",
    "country": "Afghanistan"
  },
  {
    "ident": "AF-0010",
    "type": "heliport",
    "name": "Camp Warehouse Heliport",
    "elev": null,
    "lon": 69.30969,
    "lat": 34.54016,
    "isoregion": "AF-KAB",
    "country": "Afghanistan"
  },
  {
    "ident": "AF-0012",
    "type": "heliport",
    "name": "UNOCA Heliport",
    "elev": null,
    "lon": 69.27494,
    "lat": 34.54526,
    "isoregion": "AF-KAB",
    "country": "Afghanistan"
  },
  {
    "ident": "AF-0007",
    "type": "heliport",
    "name": "Forward Operating Base Bostick Heliport",
    "elev": null,
    "lon": 71.523219,
    "lat": 35.208583,
    "isoregion": "AF-KNR",
    "country": "Afghanistan"
  },
  {
    "ident": "OA1A",
    "type": "heliport",
    "name": "Marnah Ghar Heliport",
    "elev": 5558,
    "lon": 68.940598,
    "lat": 32.336899,
    "isoregion": "AF-PKA",
    "country": "Afghanistan"
  },
  {
    "ident": "AF15",
    "type": "heliport",
    "name": "Qara Tepa Heliport",
    "elev": 1437,
    "lon": 69.430298,
    "lat": 37.423302,
    "isoregion": "AF-TAK",
    "country": "Afghanistan"
  },
  {
    "ident": "AL-0006",
    "type": "heliport",
    "name": "Pogradec Heliport",
    "elev": 2277,
    "lon": 20.65453,
    "lat": 40.90539,
    "isoregion": "AL-06",
    "country": "Albania"
  },
  {
    "ident": "AL-0009",
    "type": "heliport",
    "name": "Puka Heliport",
    "elev": 2484,
    "lon": 19.86158,
    "lat": 42.0417,
    "isoregion": "AL-10",
    "country": "Albania"
  },
  {
    "ident": "AL-0008",
    "type": "heliport",
    "name": "Farkë Helicopter Base",
    "elev": 801,
    "lon": 19.88554,
    "lat": 41.31554,
    "isoregion": "AL-11",
    "country": "Albania"
  },
  {
    "ident": "AL-0001",
    "type": "heliport",
    "name": "Lapraka Heliport",
    "elev": 297,
    "lon": 19.795152,
    "lat": 41.330782,
    "isoregion": "AL-11",
    "country": "Albania"
  },
  {
    "ident": "AL-0004",
    "type": "heliport",
    "name": "Mother Teresa Hospital Heliport",
    "elev": 420,
    "lon": 19.830489,
    "lat": 41.339303,
    "isoregion": "AL-11",
    "country": "Albania"
  },
  {
    "ident": "LAFK",
    "type": "heliport",
    "name": "Tiranë Helicopter Base",
    "elev": null,
    "lon": 19.88,
    "lat": 41.311111,
    "isoregion": "AL-11",
    "country": "Albania"
  },
  {
    "ident": "AL-0005",
    "type": "heliport",
    "name": "University Trauma Hospital Heliport",
    "elev": 295,
    "lon": 19.793764,
    "lat": 41.342857,
    "isoregion": "AL-11",
    "country": "Albania"
  },
  {
    "ident": "AL-0007",
    "type": "heliport",
    "name": "Viva Air Heliport",
    "elev": 436,
    "lon": 19.80107,
    "lat": 41.23048,
    "isoregion": "AL-11",
    "country": "Albania"
  },
  {
    "ident": "AM-0010",
    "type": "heliport",
    "name": "Victory Park Helipad",
    "elev": null,
    "lon": 44.52476,
    "lat": 40.19627,
    "isoregion": "AM-ER",
    "country": "Armenia"
  },
  {
    "ident": "AO-0066",
    "type": "heliport",
    "name": "Heli Malongo Heliport",
    "elev": null,
    "lon": 12.212859,
    "lat": -5.395639,
    "isoregion": "AO-BGO",
    "country": "Angola"
  },
  {
    "ident": "AO-0058",
    "type": "heliport",
    "name": "Sinfo Heliport",
    "elev": null,
    "lon": 13.25935,
    "lat": -8.91811,
    "isoregion": "AO-LUA",
    "country": "Angola"
  },
  {
    "ident": "AQ-0010",
    "type": "heliport",
    "name": "Arctowsky Station Heliport",
    "elev": null,
    "lon": -58.47293,
    "lat": -62.15941,
    "isoregion": "AQ-U-A",
    "country": "Antarctica"
  },
  {
    "ident": "AQ-0009",
    "type": "heliport",
    "name": "Comandante Ferraz Antarctic Station Helipad",
    "elev": null,
    "lon": -58.3915,
    "lat": -62.0857,
    "isoregion": "AQ-U-A",
    "country": "Antarctica"
  },
  {
    "ident": "AQ-0008",
    "type": "heliport",
    "name": "Machu Picchu Base Helipad",
    "elev": null,
    "lon": -58.47103,
    "lat": -62.09122,
    "isoregion": "AQ-U-A",
    "country": "Antarctica"
  },
  {
    "ident": "SAYO",
    "type": "heliport",
    "name": "Orcadas Base Heliport",
    "elev": 75,
    "lon": -44.735655,
    "lat": -60.738473,
    "isoregion": "AQ-U-A",
    "country": "Antarctica"
  },
  {
    "ident": "AQ-0006",
    "type": "heliport",
    "name": "Palmer Station Heliport",
    "elev": null,
    "lon": -64.051079,
    "lat": -64.774501,
    "isoregion": "AQ-U-A",
    "country": "Antarctica"
  },
  {
    "ident": "AR-0093",
    "type": "heliport",
    "name": "Centro Cívico Grand Bourg Heliport",
    "elev": 4132,
    "lon": -65.4514,
    "lat": -24.7806,
    "isoregion": "AR-A",
    "country": "Argentina"
  },
  {
    "ident": "AR-0159",
    "type": "heliport",
    "name": "Finca Las Costas Heliport",
    "elev": 4300,
    "lon": -65.4956,
    "lat": -24.7703,
    "isoregion": "AR-A",
    "country": "Argentina"
  },
  {
    "ident": "AR-0194",
    "type": "heliport",
    "name": "Hospital De Milagro Heliport",
    "elev": 4068,
    "lon": -65.4156,
    "lat": -24.7731,
    "isoregion": "AR-A",
    "country": "Argentina"
  },
  {
    "ident": "AR-0054",
    "type": "heliport",
    "name": "Ayres De Pilar Heliport",
    "elev": 45,
    "lon": -58.7983,
    "lat": -34.4375,
    "isoregion": "AR-B",
    "country": "Argentina"
  },
  {
    "ident": "AR-0069",
    "type": "heliport",
    "name": "Cabaña San Isidro Labrador Heliport",
    "elev": 39,
    "lon": -58.7883,
    "lat": -34.3783,
    "isoregion": "AR-B",
    "country": "Argentina"
  },
  {
    "ident": "AR-0468",
    "type": "heliport",
    "name": "Campanopolis Heliport",
    "elev": 19,
    "lon": -58.601936,
    "lat": -34.791746,
    "isoregion": "AR-B",
    "country": "Argentina"
  },
  {
    "ident": "AR-0487",
    "type": "heliport",
    "name": "Cañuelas Gas SA Heliport",
    "elev": 95,
    "lon": -58.7883,
    "lat": -35.0583,
    "isoregion": "AR-B",
    "country": "Argentina"
  },
  {
    "ident": "AR-0104",
    "type": "heliport",
    "name": "Citefa Heliport",
    "elev": 55,
    "lon": -58.5056,
    "lat": -34.5575,
    "isoregion": "AR-B",
    "country": "Argentina"
  },
  {
    "ident": "AR-0106",
    "type": "heliport",
    "name": "Club Nautico San Isidro Heliport",
    "elev": 6,
    "lon": -58.5003,
    "lat": -34.4614,
    "isoregion": "AR-B",
    "country": "Argentina"
  },
  {
    "ident": "AR-0488",
    "type": "heliport",
    "name": "Colonia La Capilla Heliport",
    "elev": 82,
    "lon": -58.2508,
    "lat": -34.9167,
    "isoregion": "AR-B",
    "country": "Argentina"
  },
  {
    "ident": "AR-0470",
    "type": "heliport",
    "name": "Country Club San Diego Heliport",
    "elev": 71,
    "lon": -58.840933,
    "lat": -34.600503,
    "isoregion": "AR-B",
    "country": "Argentina"
  },
  {
    "ident": "AR-0571",
    "type": "heliport",
    "name": "D.P. El Vapor Heliport",
    "elev": 91,
    "lon": -58.38498,
    "lat": -34.83467,
    "isoregion": "AR-B",
    "country": "Argentina"
  },
  {
    "ident": "AR-0120",
    "type": "heliport",
    "name": "D.P.A.O. Heliport",
    "elev": 62,
    "lon": -57.8928,
    "lat": -34.9597,
    "isoregion": "AR-B",
    "country": "Argentina"
  },
  {
    "ident": "AR-0472",
    "type": "heliport",
    "name": "Dr. Mariano Moreno Heliport",
    "elev": 104,
    "lon": -58.7903,
    "lat": -34.5631,
    "isoregion": "AR-B",
    "country": "Argentina"
  },
  {
    "ident": "AR-0129",
    "type": "heliport",
    "name": "Ecodyma S.C.A. Heliport",
    "elev": 45,
    "lon": -57.9919,
    "lat": -34.9408,
    "isoregion": "AR-B",
    "country": "Argentina"
  },
  {
    "ident": "AR-0133",
    "type": "heliport",
    "name": "El Capricho Heliport",
    "elev": 98,
    "lon": -59.3158,
    "lat": -34.2325,
    "isoregion": "AR-B",
    "country": "Argentina"
  },
  {
    "ident": "AR-0146",
    "type": "heliport",
    "name": "Estancia La Chacota Heliport",
    "elev": 295,
    "lon": -62.6417,
    "lat": -35.9133,
    "isoregion": "AR-B",
    "country": "Argentina"
  },
  {
    "ident": "AR-0473",
    "type": "heliport",
    "name": "Estancia La Pascuala Heliport",
    "elev": 721,
    "lon": -58.9661,
    "lat": -37.3936,
    "isoregion": "AR-B",
    "country": "Argentina"
  },
  {
    "ident": "AR-0185",
    "type": "heliport",
    "name": "Helicenter Heliport",
    "elev": 113,
    "lon": -58.606905,
    "lat": -34.497565,
    "isoregion": "AR-B",
    "country": "Argentina"
  },
  {
    "ident": "AR-0192",
    "type": "heliport",
    "name": "Heliwest Heliport",
    "elev": 71,
    "lon": -58.7511,
    "lat": -34.6336,
    "isoregion": "AR-B",
    "country": "Argentina"
  },
  {
    "ident": "AR-0661",
    "type": "heliport",
    "name": "Homaq Heliport",
    "elev": 79,
    "lon": -59.045919,
    "lat": -34.557353,
    "isoregion": "AR-B",
    "country": "Argentina"
  },
  {
    "ident": "AR-0196",
    "type": "heliport",
    "name": "Hospital Municipal Heliport",
    "elev": 154,
    "lon": -59.4494,
    "lat": -34.4489,
    "isoregion": "AR-B",
    "country": "Argentina"
  },
  {
    "ident": "AR-0206",
    "type": "heliport",
    "name": "Isla Santa Mónica Heliport",
    "elev": 14,
    "lon": -58.5072,
    "lat": -34.4147,
    "isoregion": "AR-B",
    "country": "Argentina"
  },
  {
    "ident": "AR-0220",
    "type": "heliport",
    "name": "La Caldera Heliport",
    "elev": 32,
    "lon": -56.6789,
    "lat": -36.6669,
    "isoregion": "AR-B",
    "country": "Argentina"
  },
  {
    "ident": "AR-0226",
    "type": "heliport",
    "name": "La Madrugada Heliport",
    "elev": 85,
    "lon": -59.1915,
    "lat": -34.2382,
    "isoregion": "AR-B",
    "country": "Argentina"
  },
  {
    "ident": "AR-0575",
    "type": "heliport",
    "name": "La Reserva Heliport",
    "elev": 19,
    "lon": -58.90043,
    "lat": -34.27045,
    "isoregion": "AR-B",
    "country": "Argentina"
  },
  {
    "ident": "AR-0233",
    "type": "heliport",
    "name": "La Superba Heliport",
    "elev": 32,
    "lon": -59.015,
    "lat": -34.5008,
    "isoregion": "AR-B",
    "country": "Argentina"
  },
  {
    "ident": "AR-0660",
    "type": "heliport",
    "name": "Lar de Paz S.A. Heliport",
    "elev": 49,
    "lon": -58.658291,
    "lat": -34.776328,
    "isoregion": "AR-B",
    "country": "Argentina"
  },
  {
    "ident": "AR-0242",
    "type": "heliport",
    "name": "Las Araucarias Heliport",
    "elev": 82,
    "lon": -59.1703,
    "lat": -34.3067,
    "isoregion": "AR-B",
    "country": "Argentina"
  },
  {
    "ident": "AR-0243",
    "type": "heliport",
    "name": "Las Chacritas Heliport",
    "elev": 64,
    "lon": -58.8631,
    "lat": -34.405,
    "isoregion": "AR-B",
    "country": "Argentina"
  },
  {
    "ident": "AR-0250",
    "type": "heliport",
    "name": "Legat S.A. Heliport",
    "elev": 16,
    "lon": -58.8166,
    "lat": -34.3168,
    "isoregion": "AR-B",
    "country": "Argentina"
  },
  {
    "ident": "AR-0259",
    "type": "heliport",
    "name": "Los Fresnos Heliport",
    "elev": 111,
    "lon": -59.12,
    "lat": -34.2806,
    "isoregion": "AR-B",
    "country": "Argentina"
  },
  {
    "ident": "AR-0678",
    "type": "heliport",
    "name": "Malvinas Heroes Hospital Heliport",
    "elev": 52,
    "lon": -58.74199,
    "lat": -34.66941,
    "isoregion": "AR-B",
    "country": "Argentina"
  },
  {
    "ident": "AR-0265",
    "type": "heliport",
    "name": "Manuel Afonso Heliport",
    "elev": 36,
    "lon": -58.1953,
    "lat": -34.815,
    "isoregion": "AR-B",
    "country": "Argentina"
  },
  {
    "ident": "AR-0268",
    "type": "heliport",
    "name": "Match Point Heliport",
    "elev": 82,
    "lon": -59.1339,
    "lat": -34.5161,
    "isoregion": "AR-B",
    "country": "Argentina"
  },
  {
    "ident": "AR-0270",
    "type": "heliport",
    "name": "Memorial Heliport",
    "elev": 62,
    "lon": -58.8381,
    "lat": -34.4433,
    "isoregion": "AR-B",
    "country": "Argentina"
  },
  {
    "ident": "AR-0477",
    "type": "heliport",
    "name": "Metalúrgico / Miguel Colombise Heliport",
    "elev": 88,
    "lon": -60.249377,
    "lat": -33.358949,
    "isoregion": "AR-B",
    "country": "Argentina"
  },
  {
    "ident": "AR-0275",
    "type": "heliport",
    "name": "Miraflores Country Club Heliport",
    "elev": 68,
    "lon": -58.7342,
    "lat": -34.4461,
    "isoregion": "AR-B",
    "country": "Argentina"
  },
  {
    "ident": "AR-0663",
    "type": "heliport",
    "name": "Nordelta Heliport",
    "elev": 16,
    "lon": -58.64215,
    "lat": -34.439664,
    "isoregion": "AR-B",
    "country": "Argentina"
  },
  {
    "ident": "AR-0284",
    "type": "heliport",
    "name": "Oficial Subinspector Gustavo Soarez De Souza Heliport",
    "elev": 141,
    "lon": -58.515,
    "lat": -34.7236,
    "isoregion": "AR-B",
    "country": "Argentina"
  },
  {
    "ident": "AR-0490",
    "type": "heliport",
    "name": "Piero Vara Heliport",
    "elev": 39,
    "lon": -58.972485,
    "lat": -34.433151,
    "isoregion": "AR-B",
    "country": "Argentina"
  },
  {
    "ident": "AR-0300",
    "type": "heliport",
    "name": "Policlinico San Martin Heliport",
    "elev": 68,
    "lon": -57.9167,
    "lat": -34.9167,
    "isoregion": "AR-B",
    "country": "Argentina"
  },
  {
    "ident": "AR-0301",
    "type": "heliport",
    "name": "Polisur S.A. Heliport",
    "elev": 16,
    "lon": -62.2939,
    "lat": -38.7742,
    "isoregion": "AR-B",
    "country": "Argentina"
  },
  {
    "ident": "AR-0711",
    "type": "heliport",
    "name": "Puerto Belgrano Naval Base Heliport",
    "elev": 7,
    "lon": -62.10864,
    "lat": -38.88875,
    "isoregion": "AR-B",
    "country": "Argentina"
  },
  {
    "ident": "AR-0731",
    "type": "heliport",
    "name": "San Fernando / Paraná Miní Heliport",
    "elev": 16,
    "lon": -58.510855,
    "lat": -34.171068,
    "isoregion": "AR-B",
    "country": "Argentina"
  },
  {
    "ident": "AR-0329",
    "type": "heliport",
    "name": "San Isidro Labrador Heliport",
    "elev": 377,
    "lon": -63.0822,
    "lat": -35.0814,
    "isoregion": "AR-B",
    "country": "Argentina"
  },
  {
    "ident": "AR-0330",
    "type": "heliport",
    "name": "San Joaquín Heliport",
    "elev": 137,
    "lon": -59.721508,
    "lat": -34.338502,
    "isoregion": "AR-B",
    "country": "Argentina"
  },
  {
    "ident": "AR-0339",
    "type": "heliport",
    "name": "Sarthou S.A. Heliport",
    "elev": 15,
    "lon": -58.5497,
    "lat": -34.3642,
    "isoregion": "AR-B",
    "country": "Argentina"
  },
  {
    "ident": "AR-0340",
    "type": "heliport",
    "name": "Saturnino Unzue Heliport",
    "elev": 164,
    "lon": -60.1561,
    "lat": -35.4244,
    "isoregion": "AR-B",
    "country": "Argentina"
  },
  {
    "ident": "AR-0343",
    "type": "heliport",
    "name": "Sol De Agosto Heliport",
    "elev": 32,
    "lon": -58.9714,
    "lat": -34.5331,
    "isoregion": "AR-B",
    "country": "Argentina"
  },
  {
    "ident": "AR-0573",
    "type": "heliport",
    "name": "Superficie Heliport",
    "elev": 22,
    "lon": -57.929486,
    "lat": -34.90046,
    "isoregion": "AR-B",
    "country": "Argentina"
  },
  {
    "ident": "AR-0350",
    "type": "heliport",
    "name": "Tecnocopter S.A. Heliport",
    "elev": 65,
    "lon": -58.6061,
    "lat": -34.4922,
    "isoregion": "AR-B",
    "country": "Argentina"
  },
  {
    "ident": "AR-0351",
    "type": "heliport",
    "name": "Terminal Y.P.F. Heliport",
    "elev": 32,
    "lon": -58.557735,
    "lat": -34.731923,
    "isoregion": "AR-B",
    "country": "Argentina"
  },
  {
    "ident": "AR-0353",
    "type": "heliport",
    "name": "Timen S.A. Heliport",
    "elev": 19,
    "lon": -58.6078,
    "lat": -34.4964,
    "isoregion": "AR-B",
    "country": "Argentina"
  },
  {
    "ident": "AR-0357",
    "type": "heliport",
    "name": "Transener S.A. Heliport",
    "elev": 32,
    "lon": -58.9983,
    "lat": -34.175,
    "isoregion": "AR-B",
    "country": "Argentina"
  },
  {
    "ident": "AR-0358",
    "type": "heliport",
    "name": "Transener S.A. Heliport",
    "elev": 65,
    "lon": -58.7222,
    "lat": -34.9136,
    "isoregion": "AR-B",
    "country": "Argentina"
  },
  {
    "ident": "AR-0371",
    "type": "heliport",
    "name": "Unidad Penitenciaria N° 30 Heliport",
    "elev": 180,
    "lon": -60.0167,
    "lat": -36.0444,
    "isoregion": "AR-B",
    "country": "Argentina"
  },
  {
    "ident": "AR-0578",
    "type": "heliport",
    "name": "Villa La Ñata Heliport",
    "elev": 10,
    "lon": -58.65576,
    "lat": -34.37527,
    "isoregion": "AR-B",
    "country": "Argentina"
  },
  {
    "ident": "AR-0051",
    "type": "heliport",
    "name": "Autodromo Ciudad De Bs. As. Heliport",
    "elev": 16,
    "lon": -58.46,
    "lat": -34.6939,
    "isoregion": "AR-C",
    "country": "Argentina"
  },
  {
    "ident": "AR-0057",
    "type": "heliport",
    "name": "B. Churruca Heliport",
    "elev": 19,
    "lon": -58.4094,
    "lat": -34.6407,
    "isoregion": "AR-C",
    "country": "Argentina"
  },
  {
    "ident": "AR-0091",
    "type": "heliport",
    "name": "Centinela Heliport",
    "elev": 42,
    "lon": -58.3744,
    "lat": -34.5822,
    "isoregion": "AR-C",
    "country": "Argentina"
  },
  {
    "ident": "AR-0123",
    "type": "heliport",
    "name": "Darsena Sur Heliport",
    "elev": 16,
    "lon": -58.3515,
    "lat": -34.6278,
    "isoregion": "AR-C",
    "country": "Argentina"
  },
  {
    "ident": "AR-0126",
    "type": "heliport",
    "name": "Dines ( Dr. E. Escudero) Heliport",
    "elev": 19,
    "lon": -58.4005,
    "lat": -34.5726,
    "isoregion": "AR-C",
    "country": "Argentina"
  },
  {
    "ident": "AR-0163",
    "type": "heliport",
    "name": "Fuerza Aérea(Edificio Cóndor) Heliport",
    "elev": 19,
    "lon": -58.3681,
    "lat": -34.5858,
    "isoregion": "AR-C",
    "country": "Argentina"
  },
  {
    "ident": "AR-0197",
    "type": "heliport",
    "name": "Hospital Nacional de Pediatría J. Garraham Helipad",
    "elev": 127,
    "lon": -58.393825,
    "lat": -34.630939,
    "isoregion": "AR-C",
    "country": "Argentina"
  },
  {
    "ident": "AR-0662",
    "type": "heliport",
    "name": "Madero Harbour Helipad",
    "elev": 259,
    "lon": -58.360764,
    "lat": -34.620989,
    "isoregion": "AR-C",
    "country": "Argentina"
  },
  {
    "ident": "AR-0263",
    "type": "heliport",
    "name": "Madero Heliport",
    "elev": 16,
    "lon": -58.3447,
    "lat": -34.6217,
    "isoregion": "AR-C",
    "country": "Argentina"
  },
  {
    "ident": "AR-0287",
    "type": "heliport",
    "name": "P.N.A. Of. Ppal. Ballestra Heliport",
    "elev": 19,
    "lon": -58.3838,
    "lat": -34.5772,
    "isoregion": "AR-C",
    "country": "Argentina"
  },
  {
    "ident": "AR-0303",
    "type": "heliport",
    "name": "Presidencia De La Nación Heliport",
    "elev": 26,
    "lon": -58.3683,
    "lat": -34.6064,
    "isoregion": "AR-C",
    "country": "Argentina"
  },
  {
    "ident": "AR-0337",
    "type": "heliport",
    "name": "Sanatorio Guemes Heliport",
    "elev": 268,
    "lon": -58.4219,
    "lat": -34.597,
    "isoregion": "AR-C",
    "country": "Argentina"
  },
  {
    "ident": "AR-0347",
    "type": "heliport",
    "name": "Swiss Medical Heliport",
    "elev": 193,
    "lon": -58.4294,
    "lat": -34.5808,
    "isoregion": "AR-C",
    "country": "Argentina"
  },
  {
    "ident": "AR-0359",
    "type": "heliport",
    "name": "Transener S.A. Heliport",
    "elev": 1968,
    "lon": -66.0631,
    "lat": -32.3694,
    "isoregion": "AR-D",
    "country": "Argentina"
  },
  {
    "ident": "AR-0195",
    "type": "heliport",
    "name": "Hospital Materno Infantil San Roque Heliport",
    "elev": 265,
    "lon": -60.5217,
    "lat": -31.73,
    "isoregion": "AR-E",
    "country": "Argentina"
  },
  {
    "ident": "AR-0228",
    "type": "heliport",
    "name": "La Milagrosa Heliport",
    "elev": 49,
    "lon": -58.2506,
    "lat": -32.4828,
    "isoregion": "AR-E",
    "country": "Argentina"
  },
  {
    "ident": "AR-0348",
    "type": "heliport",
    "name": "Talitas Heliport",
    "elev": 26,
    "lon": -58.2406,
    "lat": -32.5481,
    "isoregion": "AR-E",
    "country": "Argentina"
  },
  {
    "ident": "AR-0574",
    "type": "heliport",
    "name": "C.A.P.E. Provincial Police Heliport",
    "elev": 1760,
    "lon": -66.8632,
    "lat": -29.4356,
    "isoregion": "AR-F",
    "country": "Argentina"
  },
  {
    "ident": "AR-0577",
    "type": "heliport",
    "name": "Edificio Tribunales Helipad",
    "elev": 738,
    "lon": -64.265,
    "lat": -27.7813,
    "isoregion": "AR-G",
    "country": "Argentina"
  },
  {
    "ident": "AR-0479",
    "type": "heliport",
    "name": "Pernigotti Heliport",
    "elev": 475,
    "lon": -64.2278,
    "lat": -27.7708,
    "isoregion": "AR-G",
    "country": "Argentina"
  },
  {
    "ident": "AR-0478",
    "type": "heliport",
    "name": "Pachón Minera Heliport",
    "elev": 11810,
    "lon": -70.4128,
    "lat": -31.7597,
    "isoregion": "AR-J",
    "country": "Argentina"
  },
  {
    "ident": "AR-0360",
    "type": "heliport",
    "name": "Recreo / Transener S.A. Heliport",
    "elev": 810,
    "lon": -65.0582,
    "lat": -29.2628,
    "isoregion": "AR-K",
    "country": "Argentina"
  },
  {
    "ident": "AR-0055",
    "type": "heliport",
    "name": "Azcarate Irastorza Heliport",
    "elev": 416,
    "lon": -63.6008,
    "lat": -35.1994,
    "isoregion": "AR-L",
    "country": "Argentina"
  },
  {
    "ident": "AR-0361",
    "type": "heliport",
    "name": "Transener S.A. Heliport",
    "elev": 751,
    "lon": -65.8228,
    "lat": -38.1472,
    "isoregion": "AR-L",
    "country": "Argentina"
  },
  {
    "ident": "AR-0480",
    "type": "heliport",
    "name": "Policia De La Provincia De Mendoza Heliport",
    "elev": 2646,
    "lon": -68.8681,
    "lat": -32.8783,
    "isoregion": "AR-M",
    "country": "Argentina"
  },
  {
    "ident": "AR-0362",
    "type": "heliport",
    "name": "Transener S.A. Heliport",
    "elev": 2220,
    "lon": -68.5819,
    "lat": -33.0989,
    "isoregion": "AR-M",
    "country": "Argentina"
  },
  {
    "ident": "AR-0666",
    "type": "heliport",
    "name": "Puerto Esperanza Heliport",
    "elev": 509,
    "lon": -54.63825,
    "lat": -25.990346,
    "isoregion": "AR-N",
    "country": "Argentina"
  },
  {
    "ident": "AR-0482",
    "type": "heliport",
    "name": "S.A.N.A. Heliport",
    "elev": 905,
    "lon": -55.3336,
    "lat": -27.5494,
    "isoregion": "AR-N",
    "country": "Argentina"
  },
  {
    "ident": "AR-0469",
    "type": "heliport",
    "name": "Casa De Lata Heliport",
    "elev": 3221,
    "lon": -71.1681,
    "lat": -39.8153,
    "isoregion": "AR-Q",
    "country": "Argentina"
  },
  {
    "ident": "AR-0095",
    "type": "heliport",
    "name": "Cerro Chapelco Heliport",
    "elev": 4281,
    "lon": -71.3211,
    "lat": -40.1981,
    "isoregion": "AR-Q",
    "country": "Argentina"
  },
  {
    "ident": "AR-0144",
    "type": "heliport",
    "name": "Estancia Haychol Heliport",
    "elev": 3447,
    "lon": -70.6775,
    "lat": -38.6481,
    "isoregion": "AR-Q",
    "country": "Argentina"
  },
  {
    "ident": "AR-0145",
    "type": "heliport",
    "name": "Estancia La Candelaria Heliport",
    "elev": 2997,
    "lon": -71.3664,
    "lat": -40.0442,
    "isoregion": "AR-Q",
    "country": "Argentina"
  },
  {
    "ident": "AR-0152",
    "type": "heliport",
    "name": "Estancia Palitue Heliport",
    "elev": 2817,
    "lon": -71.0464,
    "lat": -39.8528,
    "isoregion": "AR-Q",
    "country": "Argentina"
  },
  {
    "ident": "AR-0156",
    "type": "heliport",
    "name": "Estancia Santa Isabel Heliport",
    "elev": 3116,
    "lon": -70.5136,
    "lat": -39.8847,
    "isoregion": "AR-Q",
    "country": "Argentina"
  },
  {
    "ident": "AR-0310",
    "type": "heliport",
    "name": "Rancho De Montaña Heliport",
    "elev": 3297,
    "lon": -71.2856,
    "lat": -40.1525,
    "isoregion": "AR-Q",
    "country": "Argentina"
  },
  {
    "ident": "AR-0363",
    "type": "heliport",
    "name": "Transener S.A. Heliport",
    "elev": 2302,
    "lon": -70.3917,
    "lat": -40.1622,
    "isoregion": "AR-Q",
    "country": "Argentina"
  },
  {
    "ident": "AR-0045",
    "type": "heliport",
    "name": "Arelauquen Heliport",
    "elev": 3099,
    "lon": -71.3659,
    "lat": -41.1612,
    "isoregion": "AR-R",
    "country": "Argentina"
  },
  {
    "ident": "AR-0109",
    "type": "heliport",
    "name": "Complejo Llao Llao Heliport",
    "elev": 2542,
    "lon": -71.5339,
    "lat": -41.0544,
    "isoregion": "AR-R",
    "country": "Argentina"
  },
  {
    "ident": "AR-0236",
    "type": "heliport",
    "name": "Lago Escondido Heliport",
    "elev": 2722,
    "lon": -71.6075,
    "lat": -41.7033,
    "isoregion": "AR-R",
    "country": "Argentina"
  },
  {
    "ident": "AR-0364",
    "type": "heliport",
    "name": "Transener S.A. Heliport",
    "elev": 426,
    "lon": -65.6886,
    "lat": -39.5675,
    "isoregion": "AR-R",
    "country": "Argentina"
  },
  {
    "ident": "AR-0576",
    "type": "heliport",
    "name": "Cooperativa de Trabajos Portuarios Limitada Heliport",
    "elev": 29,
    "lon": -60.72636,
    "lat": -32.71915,
    "isoregion": "AR-S",
    "country": "Argentina"
  },
  {
    "ident": "AR-0659",
    "type": "heliport",
    "name": "Hospital R. Carrillo Heliport",
    "elev": 121,
    "lon": -60.709189,
    "lat": -32.8518,
    "isoregion": "AR-S",
    "country": "Argentina"
  },
  {
    "ident": "AR-0489",
    "type": "heliport",
    "name": "Miguel Colombise Heliport",
    "elev": 88,
    "lon": -60.2511,
    "lat": -33.3617,
    "isoregion": "AR-S",
    "country": "Argentina"
  },
  {
    "ident": "AR-0365",
    "type": "heliport",
    "name": "Transener S.A. Heliport",
    "elev": 190,
    "lon": -59.7636,
    "lat": -29.4606,
    "isoregion": "AR-S",
    "country": "Argentina"
  },
  {
    "ident": "AR-0637",
    "type": "heliport",
    "name": "Unidad Regional II de Polcia Heliport",
    "elev": 131,
    "lon": -60.674636,
    "lat": -32.99354,
    "isoregion": "AR-S",
    "country": "Argentina"
  },
  {
    "ident": "AR-0366",
    "type": "heliport",
    "name": "Transener S.A. Heliport",
    "elev": 1239,
    "lon": -65.1636,
    "lat": -26.9936,
    "isoregion": "AR-T",
    "country": "Argentina"
  },
  {
    "ident": "AR-0046",
    "type": "heliport",
    "name": "Aries Heliport",
    "elev": null,
    "lon": -68.0419,
    "lat": -52.6831,
    "isoregion": "AR-V",
    "country": "Argentina"
  },
  {
    "ident": "AR-0050",
    "type": "heliport",
    "name": "Austral Heliport",
    "elev": 127,
    "lon": -68.3553,
    "lat": -52.8936,
    "isoregion": "AR-V",
    "country": "Argentina"
  },
  {
    "ident": "AR-0483",
    "type": "heliport",
    "name": "Austral S.A. Heliport",
    "elev": 290,
    "lon": -68.5725,
    "lat": -52.7386,
    "isoregion": "AR-V",
    "country": "Argentina"
  },
  {
    "ident": "AR-0317",
    "type": "heliport",
    "name": "Estancia Rio Ewan Heliport",
    "elev": 112,
    "lon": -67.213246,
    "lat": -54.233548,
    "isoregion": "AR-V",
    "country": "Argentina"
  },
  {
    "ident": "AR-0187",
    "type": "heliport",
    "name": "Heliplataforma Carina/Total Fina ELF",
    "elev": 30,
    "lon": -67.2194,
    "lat": -52.7572,
    "isoregion": "AR-V",
    "country": "Argentina"
  },
  {
    "ident": "AR-0664",
    "type": "heliport",
    "name": "Heliplataforma Oceanic Champion",
    "elev": 66,
    "lon": -66.416667,
    "lat": -52.833333,
    "isoregion": "AR-V",
    "country": "Argentina"
  },
  {
    "ident": "AR-0667",
    "type": "heliport",
    "name": "Heliplataforma Swiber PJW3000",
    "elev": 118,
    "lon": -67.964004,
    "lat": -53.076495,
    "isoregion": "AR-V",
    "country": "Argentina"
  },
  {
    "ident": "AR-0191",
    "type": "heliport",
    "name": "Heliplataforma/Rio Cullen-Hidra Norte Heliport",
    "elev": 65,
    "lon": -68.2192,
    "lat": -52.8206,
    "isoregion": "AR-V",
    "country": "Argentina"
  },
  {
    "ident": "AR-0297",
    "type": "heliport",
    "name": "Planta Cruz Del Sur Heliport",
    "elev": 173,
    "lon": -68.2658,
    "lat": -53.3228,
    "isoregion": "AR-V",
    "country": "Argentina"
  },
  {
    "ident": "AR-0491",
    "type": "heliport",
    "name": "Rio Cullen II Heliplatform",
    "elev": 127,
    "lon": -68.1789,
    "lat": -52.8364,
    "isoregion": "AR-V",
    "country": "Argentina"
  },
  {
    "ident": "AR-0072",
    "type": "heliport",
    "name": "Ituzaingo / Transener S.A. Heliport",
    "elev": 233,
    "lon": -56.6568,
    "lat": -27.5601,
    "isoregion": "AR-W",
    "country": "Argentina"
  },
  {
    "ident": "AR-0020",
    "type": "heliport",
    "name": "Abel Monteverde Heliport",
    "elev": 2646,
    "lon": -62.4663,
    "lat": -32.9208,
    "isoregion": "AR-X",
    "country": "Argentina"
  },
  {
    "ident": "AR-0367",
    "type": "heliport",
    "name": "Almafuerte / Transener S.A. Heliport",
    "elev": 1640,
    "lon": -64.315,
    "lat": -32.203,
    "isoregion": "AR-X",
    "country": "Argentina"
  },
  {
    "ident": "AR-0467",
    "type": "heliport",
    "name": "Berrini Heliport",
    "elev": 1811,
    "lon": -64.3433,
    "lat": -31.4397,
    "isoregion": "AR-X",
    "country": "Argentina"
  },
  {
    "ident": "AR-0075",
    "type": "heliport",
    "name": "Campo De Vuelo Heliport",
    "elev": 1515,
    "lon": -64.2636,
    "lat": -31.3689,
    "isoregion": "AR-X",
    "country": "Argentina"
  },
  {
    "ident": "AR-0087",
    "type": "heliport",
    "name": "Casa De Gobierno Heliport",
    "elev": 1420,
    "lon": -64.1842,
    "lat": -31.4306,
    "isoregion": "AR-X",
    "country": "Argentina"
  },
  {
    "ident": "AR-0092",
    "type": "heliport",
    "name": "Central Nuclear Heliport",
    "elev": 1738,
    "lon": -64.44,
    "lat": -32.2294,
    "isoregion": "AR-X",
    "country": "Argentina"
  },
  {
    "ident": "AR-0572",
    "type": "heliport",
    "name": "Centro Cívico Bicentenario Heliport",
    "elev": 1306,
    "lon": -64.173235,
    "lat": -31.42037,
    "isoregion": "AR-X",
    "country": "Argentina"
  },
  {
    "ident": "AR-0105",
    "type": "heliport",
    "name": "Ciudad Universitaria Heliport",
    "elev": 1443,
    "lon": -64.1894,
    "lat": -31.4406,
    "isoregion": "AR-X",
    "country": "Argentina"
  },
  {
    "ident": "AR-0471",
    "type": "heliport",
    "name": "Dayry Partners Americas Manufacturing Argentina Sa Heliport",
    "elev": 639,
    "lon": -63.2289,
    "lat": -32.44,
    "isoregion": "AR-X",
    "country": "Argentina"
  },
  {
    "ident": "AR-0215",
    "type": "heliport",
    "name": "Juan Y Luci Heliport",
    "elev": 2404,
    "lon": -64.7206,
    "lat": -32.6922,
    "isoregion": "AR-X",
    "country": "Argentina"
  },
  {
    "ident": "AR-0221",
    "type": "heliport",
    "name": "La Carolina Heliport",
    "elev": 1485,
    "lon": -64.2828,
    "lat": -31.3525,
    "isoregion": "AR-X",
    "country": "Argentina"
  },
  {
    "ident": "AR-0368",
    "type": "heliport",
    "name": "Montecristo / Transener S.A. Heliport",
    "elev": 1082,
    "lon": -63.9138,
    "lat": -31.3392,
    "isoregion": "AR-X",
    "country": "Argentina"
  },
  {
    "ident": "AR-0279",
    "type": "heliport",
    "name": "Morrison Heliport",
    "elev": 465,
    "lon": -62,
    "lat": -32,
    "isoregion": "AR-X",
    "country": "Argentina"
  },
  {
    "ident": "AR-0283",
    "type": "heliport",
    "name": "Norberto Cordeiro Heliport",
    "elev": 2036,
    "lon": -64.4969,
    "lat": -31.4142,
    "isoregion": "AR-X",
    "country": "Argentina"
  },
  {
    "ident": "AR-0286",
    "type": "heliport",
    "name": "Oreste Berta Heliport",
    "elev": 1869,
    "lon": -64.3922,
    "lat": -31.6269,
    "isoregion": "AR-X",
    "country": "Argentina"
  },
  {
    "ident": "AR-0299",
    "type": "heliport",
    "name": "Policía Provincia De Córdoba Heliport",
    "elev": 1293,
    "lon": -64.1833,
    "lat": -31.3994,
    "isoregion": "AR-X",
    "country": "Argentina"
  },
  {
    "ident": "AR-0309",
    "type": "heliport",
    "name": "Raies Heliport",
    "elev": 1459,
    "lon": -64.2081,
    "lat": -31.3461,
    "isoregion": "AR-X",
    "country": "Argentina"
  },
  {
    "ident": "AR-0481",
    "type": "heliport",
    "name": "Roca Heliport",
    "elev": 3444,
    "lon": -64.7794,
    "lat": -32.06,
    "isoregion": "AR-X",
    "country": "Argentina"
  },
  {
    "ident": "AR-0073",
    "type": "heliport",
    "name": "Cabo Vírgenes Heliport",
    "elev": 180,
    "lon": -68.4092,
    "lat": -52.3278,
    "isoregion": "AR-Z",
    "country": "Argentina"
  },
  {
    "ident": "AR-0155",
    "type": "heliport",
    "name": "Estancia Santa Ana Heliport",
    "elev": 665,
    "lon": -71.9689,
    "lat": -51.6839,
    "isoregion": "AR-Z",
    "country": "Argentina"
  },
  {
    "ident": "AR-0186",
    "type": "heliport",
    "name": "Heliplataforma Am I Heliport",
    "elev": 98,
    "lon": -68.3858,
    "lat": -52.5192,
    "isoregion": "AR-Z",
    "country": "Argentina"
  },
  {
    "ident": "AR-0474",
    "type": "heliport",
    "name": "Heliplataforma Barcaza Yagana Heliport",
    "elev": 49,
    "lon": -68.2806,
    "lat": -52.5225,
    "isoregion": "AR-Z",
    "country": "Argentina"
  },
  {
    "ident": "AR-0475",
    "type": "heliport",
    "name": "Heliplataforma Buque Skandi Patagonia Heliport",
    "elev": null,
    "lon": -67,
    "lat": -52,
    "isoregion": "AR-Z",
    "country": "Argentina"
  },
  {
    "ident": "AR-0476",
    "type": "heliport",
    "name": "Heliplataforma Equipo Modular M-10 Heliport",
    "elev": 108,
    "lon": -68.3119,
    "lat": -52.5489,
    "isoregion": "AR-Z",
    "country": "Argentina"
  },
  {
    "ident": "AR-0665",
    "type": "heliport",
    "name": "Heliplataforma Móvil Ocean Scepter",
    "elev": 505,
    "lon": -67.433333,
    "lat": -46.466667,
    "isoregion": "AR-Z",
    "country": "Argentina"
  },
  {
    "ident": "AR-0188",
    "type": "heliport",
    "name": "Heliplataforma/Am-2 Heliport",
    "elev": 134,
    "lon": -68.3125,
    "lat": -52.5489,
    "isoregion": "AR-Z",
    "country": "Argentina"
  },
  {
    "ident": "AR-0189",
    "type": "heliport",
    "name": "Heliplataforma/Am3 Heliport",
    "elev": 134,
    "lon": -68.2808,
    "lat": -52.5228,
    "isoregion": "AR-Z",
    "country": "Argentina"
  },
  {
    "ident": "AR-0190",
    "type": "heliport",
    "name": "Heliplataforma/Am5 Heliport",
    "elev": 98,
    "lon": -68.2533,
    "lat": -52.5706,
    "isoregion": "AR-Z",
    "country": "Argentina"
  },
  {
    "ident": "AT-0003",
    "type": "heliport",
    "name": "Bad Tatzmannsdorf PVA Hospital Helipad",
    "elev": 1247,
    "lon": 16.22207,
    "lat": 47.33072,
    "isoregion": "AT-1",
    "country": "Austria"
  },
  {
    "ident": "LODO",
    "type": "heliport",
    "name": "Christophorus 16 Heliport",
    "elev": 1079,
    "lon": 16.18352,
    "lat": 47.30526,
    "isoregion": "AT-1",
    "country": "Austria"
  },
  {
    "ident": "AT-0004",
    "type": "heliport",
    "name": "Güssing Hospital Helipad",
    "elev": 731,
    "lon": 16.3217,
    "lat": 47.04977,
    "isoregion": "AT-1",
    "country": "Austria"
  },
  {
    "ident": "LOAC",
    "type": "heliport",
    "name": "Kittsee Heliport",
    "elev": 446,
    "lon": 17.06610870361328,
    "lat": 48.09328842163086,
    "isoregion": "AT-1",
    "country": "Austria"
  },
  {
    "ident": "LOAO",
    "type": "heliport",
    "name": "Oberpullendorf Heliport",
    "elev": 909,
    "lon": 16.51201057434082,
    "lat": 47.507625579833984,
    "isoregion": "AT-1",
    "country": "Austria"
  },
  {
    "ident": "LOGR",
    "type": "heliport",
    "name": "Schwerpunkt Heliport",
    "elev": 1076,
    "lon": 16.202777862548828,
    "lat": 47.279998779296875,
    "isoregion": "AT-1",
    "country": "Austria"
  },
  {
    "ident": "LOKB",
    "type": "heliport",
    "name": "Bad Kleinkircheim Heliport",
    "elev": 3399,
    "lon": 13.783888816833496,
    "lat": 46.81194305419922,
    "isoregion": "AT-2",
    "country": "Austria"
  },
  {
    "ident": "LOKA",
    "type": "heliport",
    "name": "Bodenlandeplatz/Ground-Landing Area Heliport",
    "elev": 1458,
    "lon": 14.3074998856,
    "lat": 46.6352767944,
    "isoregion": "AT-2",
    "country": "Austria"
  },
  {
    "ident": "LOKU",
    "type": "heliport",
    "name": "Dachlandeplatz 2 Heliport",
    "elev": 1506,
    "lon": 14.29555606842041,
    "lat": 46.61805725097656,
    "isoregion": "AT-2",
    "country": "Austria"
  },
  {
    "ident": "LOMW",
    "type": "heliport",
    "name": "Dachlandeplatz Heliport",
    "elev": 1575,
    "lon": 14.848055839538574,
    "lat": 46.83250045776367,
    "isoregion": "AT-2",
    "country": "Austria"
  },
  {
    "ident": "LOKP",
    "type": "heliport",
    "name": "Deutsch-Ordens-Spital Heliport",
    "elev": 2113,
    "lon": 14.410833358764648,
    "lat": 46.94722366333008,
    "isoregion": "AT-2",
    "country": "Austria"
  },
  {
    "ident": "LOKV",
    "type": "heliport",
    "name": "Febau Heliport",
    "elev": 1568,
    "lon": 14.615833282470703,
    "lat": 46.661109924316406,
    "isoregion": "AT-2",
    "country": "Austria"
  },
  {
    "ident": "LOKD",
    "type": "heliport",
    "name": "Föderlach Heliport",
    "elev": 1619,
    "lon": 13.949712753295898,
    "lat": 46.601768493652344,
    "isoregion": "AT-2",
    "country": "Austria"
  },
  {
    "ident": "LOKK",
    "type": "heliport",
    "name": "Hallegg Heliport",
    "elev": 1493,
    "lon": 14.245833396911621,
    "lat": 46.64805603027344,
    "isoregion": "AT-2",
    "country": "Austria"
  },
  {
    "ident": "LOKY",
    "type": "heliport",
    "name": "Landespolizeikommando Kärnten Heliport",
    "elev": 1532,
    "lon": 14.307845115661621,
    "lat": 46.620018005371094,
    "isoregion": "AT-2",
    "country": "Austria"
  },
  {
    "ident": "LOMP",
    "type": "heliport",
    "name": "Patergassen Heliport",
    "elev": 3576,
    "lon": 13.857221603393555,
    "lat": 46.81944274902344,
    "isoregion": "AT-2",
    "country": "Austria"
  },
  {
    "ident": "LOKS",
    "type": "heliport",
    "name": "St. Andrä Im Lavanttal Heliport",
    "elev": 1414,
    "lon": 14.825555801391602,
    "lat": 46.758331298828125,
    "isoregion": "AT-2",
    "country": "Austria"
  },
  {
    "ident": "LOKT",
    "type": "heliport",
    "name": "Villach Heliport",
    "elev": 1732,
    "lon": 13.857175827026367,
    "lat": 46.615692138671875,
    "isoregion": "AT-2",
    "country": "Austria"
  },
  {
    "ident": "LOKI",
    "type": "heliport",
    "name": "Wietersdorf Heliport",
    "elev": 2070,
    "lon": 14.536944389343262,
    "lat": 46.8477783203125,
    "isoregion": "AT-2",
    "country": "Austria"
  },
  {
    "ident": "LOKZ",
    "type": "heliport",
    "name": "Zwatzhof Heliport",
    "elev": 2500,
    "lon": 14.2747220993042,
    "lat": 46.975555419921875,
    "isoregion": "AT-2",
    "country": "Austria"
  },
  {
    "ident": "LOAF",
    "type": "heliport",
    "name": "Baden Heliport",
    "elev": 733,
    "lon": 16.252222061157227,
    "lat": 48.00027847290039,
    "isoregion": "AT-3",
    "country": "Austria"
  },
  {
    "ident": "AT-0007",
    "type": "heliport",
    "name": "Christophorus 15 Heliport",
    "elev": null,
    "lon": 14.9396096,
    "lat": 47.9692672,
    "isoregion": "AT-3",
    "country": "Austria"
  },
  {
    "ident": "LOAE",
    "type": "heliport",
    "name": "Eisenstadt Heliport",
    "elev": 748,
    "lon": 16.51345,
    "lat": 47.84677,
    "isoregion": "AT-3",
    "country": "Austria"
  },
  {
    "ident": "AT-0008",
    "type": "heliport",
    "name": "Gmünd Heliport",
    "elev": 1594,
    "lon": 14.974763,
    "lat": 48.78522,
    "isoregion": "AT-3",
    "country": "Austria"
  },
  {
    "ident": "LOAH",
    "type": "heliport",
    "name": "Horn Heliport",
    "elev": 1012,
    "lon": 15.661944389343262,
    "lat": 48.66972351074219,
    "isoregion": "AT-3",
    "country": "Austria"
  },
  {
    "ident": "LOAY",
    "type": "heliport",
    "name": "Kilb Heliport",
    "elev": 1388,
    "lon": 15.428333282470703,
    "lat": 48.08610916137695,
    "isoregion": "AT-3",
    "country": "Austria"
  },
  {
    "ident": "LOAQ",
    "type": "heliport",
    "name": "Krankenhaus Heliport",
    "elev": 947,
    "lon": 14.88083267211914,
    "lat": 48.12666702270508,
    "isoregion": "AT-3",
    "country": "Austria"
  },
  {
    "ident": "LOAK",
    "type": "heliport",
    "name": "Krems Heliport",
    "elev": 647,
    "lon": 15.616389274597168,
    "lat": 48.413333892822266,
    "isoregion": "AT-3",
    "country": "Austria"
  },
  {
    "ident": "LOBM",
    "type": "heliport",
    "name": "Mistelbach Hospital Helipad",
    "elev": 715,
    "lon": 16.579138,
    "lat": 48.567663,
    "isoregion": "AT-3",
    "country": "Austria"
  },
  {
    "ident": "LOBI",
    "type": "heliport",
    "name": "Mödling Krankenhaus Heliport",
    "elev": null,
    "lon": 16.298242,
    "lat": 48.089471,
    "isoregion": "AT-3",
    "country": "Austria"
  },
  {
    "ident": "AT-0001",
    "type": "heliport",
    "name": "Pöchlarn-Wörth Heliport",
    "elev": 709,
    "lon": 15.255424,
    "lat": 48.214737,
    "isoregion": "AT-3",
    "country": "Austria"
  },
  {
    "ident": "LOAX",
    "type": "heliport",
    "name": "St. Pölten Heliport",
    "elev": 997,
    "lon": 15.629166603088379,
    "lat": 48.21333312988281,
    "isoregion": "AT-3",
    "country": "Austria"
  },
  {
    "ident": "LOAP",
    "type": "heliport",
    "name": "Waidhofen an der Ybbs Hospital Helipad",
    "elev": 1279,
    "lon": 14.788056,
    "lat": 47.952778,
    "isoregion": "AT-3",
    "country": "Austria"
  },
  {
    "ident": "LOAZ",
    "type": "heliport",
    "name": "Zwettl Heliport",
    "elev": 1900,
    "lon": 15.164167404174805,
    "lat": 48.599998474121094,
    "isoregion": "AT-3",
    "country": "Austria"
  },
  {
    "ident": "LOAW",
    "type": "heliport",
    "name": "Öamtc Heliport",
    "elev": 900,
    "lon": 16.252777099609375,
    "lat": 47.84555435180664,
    "isoregion": "AT-3",
    "country": "Austria"
  },
  {
    "ident": "LOLD",
    "type": "heliport",
    "name": "Europa 3 Heliport",
    "elev": 1109,
    "lon": 13.44972229,
    "lat": 48.4008331299,
    "isoregion": "AT-4",
    "country": "Austria"
  },
  {
    "ident": "LOSL",
    "type": "heliport",
    "name": "Dachlandeplatz Heliport",
    "elev": 1452,
    "lon": 13.027724266052246,
    "lat": 47.80583953857422,
    "isoregion": "AT-5",
    "country": "Austria"
  },
  {
    "ident": "LOKO",
    "type": "heliport",
    "name": "Goldeck Talstation Heliport",
    "elev": 1761,
    "lon": 13.483258247375488,
    "lat": 46.79315185546875,
    "isoregion": "AT-5",
    "country": "Austria"
  },
  {
    "ident": "LOSS",
    "type": "heliport",
    "name": "Schwarzach Heliport",
    "elev": 2046,
    "lon": 13.154999732971191,
    "lat": 47.32444381713867,
    "isoregion": "AT-5",
    "country": "Austria"
  },
  {
    "ident": "LOXS",
    "type": "heliport",
    "name": "Schwarzenbergkaserne Military Heliport",
    "elev": 1433,
    "lon": 12.981666564941406,
    "lat": 47.79750061035156,
    "isoregion": "AT-5",
    "country": "Austria"
  },
  {
    "ident": "LOSJ",
    "type": "heliport",
    "name": "St. Johann Im Pongau Heliport",
    "elev": 1803,
    "lon": 13.222222328186035,
    "lat": 47.394168853759766,
    "isoregion": "AT-5",
    "country": "Austria"
  },
  {
    "ident": "LOGA",
    "type": "heliport",
    "name": "Bad Radkersburg Hospital Helipad",
    "elev": 682,
    "lon": 15.992397,
    "lat": 46.691607,
    "isoregion": "AT-6",
    "country": "Austria"
  },
  {
    "ident": "LODL",
    "type": "heliport",
    "name": "Business Center Leitner Heliport",
    "elev": 1000,
    "lon": 15.800702,
    "lat": 46.968071,
    "isoregion": "AT-6",
    "country": "Austria"
  },
  {
    "ident": "LOGH",
    "type": "heliport",
    "name": "Graz University Hospital Helipad",
    "elev": 1427,
    "lon": 15.46381,
    "lat": 47.08059,
    "isoregion": "AT-6",
    "country": "Austria"
  },
  {
    "ident": "LOHD",
    "type": "heliport",
    "name": "Hartberg LKH Heliport",
    "elev": null,
    "lon": 15.966111,
    "lat": 47.273333,
    "isoregion": "AT-6",
    "country": "Austria"
  },
  {
    "ident": "LOGJ",
    "type": "heliport",
    "name": "Judenburg Heliport",
    "elev": 2448,
    "lon": 14.654999732971191,
    "lat": 47.165000915527344,
    "isoregion": "AT-6",
    "country": "Austria"
  },
  {
    "ident": "LOGC",
    "type": "heliport",
    "name": "Niederöblarn Heliport",
    "elev": 2142,
    "lon": 14.010556221,
    "lat": 47.4799995422,
    "isoregion": "AT-6",
    "country": "Austria"
  },
  {
    "ident": "LOKX",
    "type": "heliport",
    "name": "Feldkirchen-Waiern Heliport",
    "elev": 2014,
    "lon": 14.087778091430664,
    "lat": 46.73444366455078,
    "isoregion": "AT-7",
    "country": "Austria"
  },
  {
    "ident": "LOIN",
    "type": "heliport",
    "name": "Feuerwehrschule Heliport",
    "elev": 2423,
    "lon": 11.050832748413086,
    "lat": 47.309165954589844,
    "isoregion": "AT-7",
    "country": "Austria"
  },
  {
    "ident": "LOJO",
    "type": "heliport",
    "name": "Flugrettungszentrum Öamtc Heliport",
    "elev": 1998,
    "lon": 11.345556259155273,
    "lat": 47.255001068115234,
    "isoregion": "AT-7",
    "country": "Austria"
  },
  {
    "ident": "LOKC",
    "type": "heliport",
    "name": "Glock Heliport",
    "elev": 1539,
    "lon": 14.297050476074219,
    "lat": 46.522735595703125,
    "isoregion": "AT-7",
    "country": "Austria"
  },
  {
    "ident": "LOII",
    "type": "heliport",
    "name": "Hall in Tirol Hospital Heliport",
    "elev": 1887,
    "lon": 11.515834,
    "lat": 47.281387,
    "isoregion": "AT-7",
    "country": "Austria"
  },
  {
    "ident": "LOJT",
    "type": "heliport",
    "name": "Hat Tux Heliport",
    "elev": 4495,
    "lon": 11.704167366,
    "lat": 47.133888244599994,
    "isoregion": "AT-7",
    "country": "Austria"
  },
  {
    "ident": "LOXH",
    "type": "heliport",
    "name": "Hochfilzen Heliport",
    "elev": 3484,
    "lon": 12.650278091430664,
    "lat": 47.477500915527344,
    "isoregion": "AT-7",
    "country": "Austria"
  },
  {
    "ident": "LOIB",
    "type": "heliport",
    "name": "Hörlahof Heliport",
    "elev": 2733,
    "lon": 12.367752,
    "lat": 47.466857,
    "isoregion": "AT-7",
    "country": "Austria"
  },
  {
    "ident": "LOIP",
    "type": "heliport",
    "name": "Idalpe Heliport",
    "elev": 7522,
    "lon": 10.316110610961914,
    "lat": 46.981109619140625,
    "isoregion": "AT-7",
    "country": "Austria"
  },
  {
    "ident": "LOJK",
    "type": "heliport",
    "name": "Kaltenbach Heliport",
    "elev": 1791,
    "lon": 11.879721641540527,
    "lat": 47.28555679321289,
    "isoregion": "AT-7",
    "country": "Austria"
  },
  {
    "ident": "LOJP",
    "type": "heliport",
    "name": "Karres Heliport",
    "elev": 2534,
    "lon": 10.768889427185059,
    "lat": 47.21888732910156,
    "isoregion": "AT-7",
    "country": "Austria"
  },
  {
    "ident": "LOIA",
    "type": "heliport",
    "name": "Kitzbühel Hospital Helipad",
    "elev": 2510,
    "lon": 12.395697,
    "lat": 47.449643,
    "isoregion": "AT-7",
    "country": "Austria"
  },
  {
    "ident": "LOID",
    "type": "heliport",
    "name": "Kufstein Heliport",
    "elev": 1664,
    "lon": 12.149485,
    "lat": 47.57124,
    "isoregion": "AT-7",
    "country": "Austria"
  },
  {
    "ident": "LOIM",
    "type": "heliport",
    "name": "Langkampfen - Au Heliport",
    "elev": 1624,
    "lon": 12.1350002289,
    "lat": 47.5661125183,
    "isoregion": "AT-7",
    "country": "Austria"
  },
  {
    "ident": "LOKJ",
    "type": "heliport",
    "name": "Lienz Heliport",
    "elev": 2254,
    "lon": 12.762778282165527,
    "lat": 46.834999084472656,
    "isoregion": "AT-7",
    "country": "Austria"
  },
  {
    "ident": "LOJM",
    "type": "heliport",
    "name": "Mayrhofen Heliport",
    "elev": 2000,
    "lon": 11.868056297302246,
    "lat": 47.1783332824707,
    "isoregion": "AT-7",
    "country": "Austria"
  },
  {
    "ident": "LOIE",
    "type": "heliport",
    "name": "Reutte Heliport",
    "elev": 2822,
    "lon": 10.711678,
    "lat": 47.473027,
    "isoregion": "AT-7",
    "country": "Austria"
  },
  {
    "ident": "LOIZ",
    "type": "heliport",
    "name": "Schwaz Heliport",
    "elev": 1827,
    "lon": 11.705278396606445,
    "lat": 47.344444274902344,
    "isoregion": "AT-7",
    "country": "Austria"
  },
  {
    "ident": "LOXI",
    "type": "heliport",
    "name": "Schwaz Military Heliport",
    "elev": 1774,
    "lon": 11.697500228881836,
    "lat": 47.334999084472656,
    "isoregion": "AT-7",
    "country": "Austria"
  },
  {
    "ident": "LOIT",
    "type": "heliport",
    "name": "St Johann In Tirol Hospital Heliport",
    "elev": 2170,
    "lon": 12.429672,
    "lat": 47.520935,
    "isoregion": "AT-7",
    "country": "Austria"
  },
  {
    "ident": "LOIV",
    "type": "heliport",
    "name": "St. Vinzenz Heliport",
    "elev": 2546,
    "lon": 10.593055725097656,
    "lat": 47.162498474121094,
    "isoregion": "AT-7",
    "country": "Austria"
  },
  {
    "ident": "LOIS",
    "type": "heliport",
    "name": "Swarovski Heliport",
    "elev": 1818,
    "lon": 11.60016918182373,
    "lat": 47.29471969604492,
    "isoregion": "AT-7",
    "country": "Austria"
  },
  {
    "ident": "LOIO",
    "type": "heliport",
    "name": "Sölden Heliport",
    "elev": 4764,
    "lon": 11.018758773803711,
    "lat": 46.946624755859375,
    "isoregion": "AT-7",
    "country": "Austria"
  },
  {
    "ident": "LOIU",
    "type": "heliport",
    "name": "Uni Klinik Heliport",
    "elev": 2057,
    "lon": 11.384798049926758,
    "lat": 47.261043548583984,
    "isoregion": "AT-7",
    "country": "Austria"
  },
  {
    "ident": "LOIW",
    "type": "heliport",
    "name": "Waidring Heliport",
    "elev": 2493,
    "lon": 12.592499732971191,
    "lat": 47.58527755737305,
    "isoregion": "AT-7",
    "country": "Austria"
  },
  {
    "ident": "LOJZ",
    "type": "heliport",
    "name": "Zugspitzarena Heliport",
    "elev": 3666,
    "lon": 10.9269437789917,
    "lat": 47.41999816894531,
    "isoregion": "AT-7",
    "country": "Austria"
  },
  {
    "ident": "LOIL",
    "type": "heliport",
    "name": "ÖAMTC Heliport",
    "elev": 2513,
    "lon": 10.612607,
    "lat": 47.176579,
    "isoregion": "AT-7",
    "country": "Austria"
  },
  {
    "ident": "LOKQ",
    "type": "heliport",
    "name": "Öamtc Heliport",
    "elev": 2097,
    "lon": 12.876914978,
    "lat": 46.7998123169,
    "isoregion": "AT-7",
    "country": "Austria"
  },
  {
    "ident": "LOIX",
    "type": "heliport",
    "name": "Bregenz Heliport",
    "elev": 1492,
    "lon": 9.745111465454102,
    "lat": 47.49666213989258,
    "isoregion": "AT-8",
    "country": "Austria"
  },
  {
    "ident": "AT-0006",
    "type": "heliport",
    "name": "Christophorus 8 Heliport",
    "elev": null,
    "lon": 9.6598223,
    "lat": 47.2089892,
    "isoregion": "AT-8",
    "country": "Austria"
  },
  {
    "ident": "LOIQ",
    "type": "heliport",
    "name": "Dr. Schenk Heliport",
    "elev": 1449,
    "lon": 9.591497421264648,
    "lat": 47.274681091308594,
    "isoregion": "AT-8",
    "country": "Austria"
  },
  {
    "ident": "LOIG",
    "type": "heliport",
    "name": "Ludesch Heliport",
    "elev": 1804,
    "lon": 9.780555725097656,
    "lat": 47.20083236694336,
    "isoregion": "AT-8",
    "country": "Austria"
  },
  {
    "ident": "LOIY",
    "type": "heliport",
    "name": "Sanatorium Dr. Schenk Heliport",
    "elev": 2240,
    "lon": 9.913284301757812,
    "lat": 47.07394027709961,
    "isoregion": "AT-8",
    "country": "Austria"
  },
  {
    "ident": "LOIC",
    "type": "heliport",
    "name": "St. Anton Am Arlberg Heliport",
    "elev": 4730,
    "lon": 10.240544,
    "lat": 47.119642,
    "isoregion": "AT-8",
    "country": "Austria"
  },
  {
    "ident": "LOBF",
    "type": "heliport",
    "name": "Christophorus 9 Hospital Heliport",
    "elev": null,
    "lon": 16.4124325,
    "lat": 48.1893018,
    "isoregion": "AT-9",
    "country": "Austria"
  },
  {
    "ident": "LOAM",
    "type": "heliport",
    "name": "Meidling Heliport",
    "elev": 737,
    "lon": 16.322603225708008,
    "lat": 48.17399597167969,
    "isoregion": "AT-9",
    "country": "Austria"
  },
  {
    "ident": "LOBA",
    "type": "heliport",
    "name": "Wien Heliport",
    "elev": 689,
    "lon": 16.346111297607422,
    "lat": 48.2216682434082,
    "isoregion": "AT-9",
    "country": "Austria"
  },
  {
    "ident": "LOAJ",
    "type": "heliport",
    "name": "Öamtc Heliport",
    "elev": 516,
    "lon": 16.5126925707,
    "lat": 48.2223245852,
    "isoregion": "AT-9",
    "country": "Austria"
  },
  {
    "ident": "AU-0161",
    "type": "heliport",
    "name": "Caloola Farm Top Naas Valley Helicopter Landing Site",
    "elev": 2248,
    "lon": 149.068833,
    "lat": -35.670667,
    "isoregion": "AU-ACT",
    "country": "Australia"
  },
  {
    "ident": "YXCY",
    "type": "heliport",
    "name": "Calvary - Bruce Oval Helipad",
    "elev": 2031,
    "lon": 149.0927,
    "lat": -35.247,
    "isoregion": "AU-ACT",
    "country": "Australia"
  },
  {
    "ident": "YXCB",
    "type": "heliport",
    "name": "Canberra Hospital Helipad",
    "elev": 1953,
    "lon": 149.099953,
    "lat": -35.343777,
    "isoregion": "AU-ACT",
    "country": "Australia"
  },
  {
    "ident": "AU-0162",
    "type": "heliport",
    "name": "Canberra Training Area C30 Helicopter Landing Site",
    "elev": 2566,
    "lon": 149.285059,
    "lat": -35.495181,
    "isoregion": "AU-ACT",
    "country": "Australia"
  },
  {
    "ident": "YXSB",
    "type": "heliport",
    "name": "Southcare Base - Canberra Heliport",
    "elev": 1919,
    "lon": 149.171559,
    "lat": -35.378588,
    "isoregion": "AU-ACT",
    "country": "Australia"
  },
  {
    "ident": "YXAL",
    "type": "heliport",
    "name": "Albury Base Hospital Helipad",
    "elev": 588,
    "lon": 146.938565,
    "lat": -36.079212,
    "isoregion": "AU-NSW",
    "country": "Australia"
  },
  {
    "ident": "AU-0163",
    "type": "heliport",
    "name": "Angus Place Colliery Heliport",
    "elev": 2996,
    "lon": 150.098981,
    "lat": -33.352098,
    "isoregion": "AU-NSW",
    "country": "Australia"
  },
  {
    "ident": "AU-0069",
    "type": "heliport",
    "name": "Appin Colliery Helipad",
    "elev": 832,
    "lon": 150.7914,
    "lat": -34.2098,
    "isoregion": "AU-NSW",
    "country": "Australia"
  },
  {
    "ident": "AU-0145",
    "type": "heliport",
    "name": "Appin West Colliery Heliport",
    "elev": 623,
    "lon": 150.717167,
    "lat": -34.2185,
    "isoregion": "AU-NSW",
    "country": "Australia"
  },
  {
    "ident": "YXAH",
    "type": "heliport",
    "name": "Armidale - Lambert Park Helipad",
    "elev": 3246,
    "lon": 151.6552,
    "lat": -30.5113,
    "isoregion": "AU-NSW",
    "country": "Australia"
  },
  {
    "ident": "YXAU",
    "type": "heliport",
    "name": "Auburn Medical (Wyatt Park) Helicopter Landing Site",
    "elev": 36,
    "lon": 151.040833,
    "lat": -33.858333,
    "isoregion": "AU-NSW",
    "country": "Australia"
  },
  {
    "ident": "AU-0146",
    "type": "heliport",
    "name": "Aussies - Austral Bricks Helicopter landing Site",
    "elev": 190,
    "lon": 150.811172,
    "lat": -33.829553,
    "isoregion": "AU-NSW",
    "country": "Australia"
  },
  {
    "ident": "AU-0070",
    "type": "heliport",
    "name": "Baal Bone Colliery Helipad",
    "elev": 2840,
    "lon": 150.05846,
    "lat": -33.26958,
    "isoregion": "AU-NSW",
    "country": "Australia"
  },
  {
    "ident": "YXBA",
    "type": "heliport",
    "name": "Ballina - Kingsford Smith Park Helipad",
    "elev": 17,
    "lon": 153.5713,
    "lat": -28.8692,
    "isoregion": "AU-NSW",
    "country": "Australia"
  },
  {
    "ident": "AU-0164",
    "type": "heliport",
    "name": "Bankstown - City Sports Complex HLS",
    "elev": 82,
    "lon": 151.023045,
    "lat": -33.926981,
    "isoregion": "AU-NSW",
    "country": "Australia"
  },
  {
    "ident": "AU-0147",
    "type": "heliport",
    "name": "Baradine Oval Helicopter landing Site,",
    "elev": 986,
    "lon": 149.065167,
    "lat": -30.951667,
    "isoregion": "AU-NSW",
    "country": "Australia"
  },
  {
    "ident": "AU-0168",
    "type": "heliport",
    "name": "Batemans Bay ALT Hanging Rock HLS",
    "elev": 39,
    "lon": 150.1955,
    "lat": -35.721,
    "isoregion": "AU-NSW",
    "country": "Australia"
  },
  {
    "ident": "YXBM",
    "type": "heliport",
    "name": "Batemans Bay Helipad",
    "elev": 3,
    "lon": 150.1872,
    "lat": -35.71301,
    "isoregion": "AU-NSW",
    "country": "Australia"
  },
  {
    "ident": "AU-0169",
    "type": "heliport",
    "name": "Batemans Bay Mackay Park HLS",
    "elev": 46,
    "lon": 150.172621,
    "lat": -35.708915,
    "isoregion": "AU-NSW",
    "country": "Australia"
  },
  {
    "ident": "AU-0170",
    "type": "heliport",
    "name": "Bathurst Hospital Alternate (Victoria Park) Helipad",
    "elev": 2160,
    "lon": 149.574115,
    "lat": -33.407196,
    "isoregion": "AU-NSW",
    "country": "Australia"
  },
  {
    "ident": "YXBH",
    "type": "heliport",
    "name": "Bathurst Hospital Helipad",
    "elev": 2240,
    "lon": 149.571884,
    "lat": -33.40587,
    "isoregion": "AU-NSW",
    "country": "Australia"
  },
  {
    "ident": "AU-0150",
    "type": "heliport",
    "name": "Baulkham Hills Private Hospital Helicopter Landing Site",
    "elev": 317,
    "lon": 150.990617,
    "lat": -33.744812,
    "isoregion": "AU-NSW",
    "country": "Australia"
  },
  {
    "ident": "YXBV",
    "type": "heliport",
    "name": "Bega Hospital Heliport",
    "elev": 68,
    "lon": 149.858596,
    "lat": -36.687887,
    "isoregion": "AU-NSW",
    "country": "Australia"
  },
  {
    "ident": "YXEG",
    "type": "heliport",
    "name": "Bellingen Medical - Connell Park HLS",
    "elev": 40,
    "lon": 152.901771,
    "lat": -30.453613,
    "isoregion": "AU-NSW",
    "country": "Australia"
  },
  {
    "ident": "YBMG",
    "type": "heliport",
    "name": "Bermagui - Dickinson Oval HLS",
    "elev": 10,
    "lon": 150.076167,
    "lat": -36.4265,
    "isoregion": "AU-NSW",
    "country": "Australia"
  },
  {
    "ident": "YXIG",
    "type": "heliport",
    "name": "Bingara Hospital Heliport",
    "elev": 1020,
    "lon": 150.579563,
    "lat": -29.86407,
    "isoregion": "AU-NSW",
    "country": "Australia"
  },
  {
    "ident": "AU-0062",
    "type": "heliport",
    "name": "Blackheath - NPWS Helipad",
    "elev": 3316,
    "lon": 150.306706,
    "lat": -33.628062,
    "isoregion": "AU-NSW",
    "country": "Australia"
  },
  {
    "ident": "YXAY",
    "type": "heliport",
    "name": "Blayney Medical Helicopter Landing Site",
    "elev": 2887,
    "lon": 149.249167,
    "lat": -33.534833,
    "isoregion": "AU-NSW",
    "country": "Australia"
  },
  {
    "ident": "YXKM",
    "type": "heliport",
    "name": "Blue Mountains Hospital Helipad",
    "elev": 3333,
    "lon": 150.322369,
    "lat": -33.705262,
    "isoregion": "AU-NSW",
    "country": "Australia"
  },
  {
    "ident": "AU-0104",
    "type": "heliport",
    "name": "Boggabilla Fuel Depot Landing Site",
    "elev": 736,
    "lon": 150.352,
    "lat": -28.6089,
    "isoregion": "AU-NSW",
    "country": "Australia"
  },